$GPGSV,3,3,12,30,15,047,30,41,,,42,42,,,35,50,,,36*4E
$BDGSV,2,1,06,01,38,144,36,02,35,227,38,03,45,189,41,09,51,260,25*62
$BDGSV,2,2,06,11,16,182,20,13,63,212,39*6C
$GNGGA,073141.00,3637.268780,N,11700.563375,E,1,07,0.8,133.1,M,-4.0,M,,*60
$GNVTG,0.0,T,5.4,M,0.0,N,0.0,K,A*3C
$GNRMC,073141.00,A,3637.268780,N,11700.563375,E,0.0,0.0,121017,5.4,W,A*38
$GPGSA,A,2,02,05,13,15,20,21,29,,,,,,1.2,0.8,0.8*3B
$GLGSA,A,2,68,79,83,85,,,,,,,,,1.2,0.8,0.8*2A
$BDGSA,A,2,03,13,,,,,,,,,,,1.2,0.8,0.8*20
$GLGSV,3,1,10,,,,24,,,,24,70,09,262,22,77,11,033,16*69
$GLGSV,3,2,10,79,11,126,40,69,51,307,21,84,56,289,21,83,40,192,29*67
$GLGSV,3,3,10,85,13,331,40,68,41,030,30*65
$GPGSV,3,1,12,02,21,142,28,05,45,067,29,13,73,049,29,15,67,241,41*7D
$GPGSV,3,2,12,18,10,284,20,20,63,330,29,21,30,312,28,29,32,232,48*7C
$GPGSV,3,3,12,30,15,047,29,41,,,42,42,,,35,50,,,36*46
$BDGSV,2,1,06,01,38,144,36,02,35,227,38,03,45,189,41,09,51,260,24*63
$BDGSV,2,2,06,11,16,182,20,13,63,212,39*6C
$GNGGA,073142.00,3637.268782,N,11700.563376,E,1,07,0.8,133.1,M,-4.0,M,,*62
$GNVTG,0.0,T,5.4,M,0.0,N,0.0,K,A*3C
$GNRMC,073142.00,A,3637.268782,N,11700.563376,E,0.0,0.0,121017,5.4,W,A*3A
$GPGSA,A,2,02,05,13,15,20,21,29,,,,,,1.2,0.8,0.8*3B
$GLGSA,A,2,68,79,83,85,,,,,,,,,1.2,0.8,0.8*2A
$BDGSA,A,2,03,13,,,,,,,,,,,1.2,0.8,0.8*20
$GLGSV,3,1,10,,,,24,,,,24,70,09,262,22,77,11,033,16*69
$GLGSV,3,2,10,79,11,126,40,69,51,307,21,84,56,289,23,83,40,192,29*65
$GLGSV,3,3,10,85,13,331,40,68,41,030,29*6D
$GPGSV,3,1,12,02,21,142,28,05,45,067,28,13,73,049,28,15,67,241,41*7D
$GPGSV,3,2,12,18,10,284,23,20,63,330,30,21,30,312,28,29,32,232,48*77
$GPGSV,3,3,12,30,15,047,27,41,,,42,42,,,34,50,,,36*49
$BDGSV,2,1,06,01,38,144,36,02,35,227,38,03,45,189,41,09,51,260,25*62
$BDGSV,2,2,06,11,16,182,20,13,63,212,39*6C
$GNGGA,073143.00,3637.268784,N,11700.563377,E,1,07,0.8,133.1,M,-4.0,M,,*64
$GNVTG,0.0,T,5.4,M,0.0,N,0.0,K,A*3C
$GNRMC,073143.00,A,3637.268784,N,11700.563377,E,0.0,0.0,121017,5.4,W,A*3C
$GPGSA,A,2,02,05,13,15,20,21,29,,,,,,1.2,0.8,0.8*3B
$GLGSA,A,2,68,79,83,85,,,,,,,,,1.2,0.8,0.8*2A
$BDGSA,A,2,03,13,,,,,,,,,,,1.2,0.8,0.8*20
$GLGSV,3,1,10,,,,24,,,,25,70,09,262,20,77,11,033,16*6A
$GLGSV,3,2,10,79,11,126,40,69,51,307,21,84,56,289,23,83,40,192,29*65
$GLGSV,3,3,10,85,13,331,40,68,41,030,29*6D
$GPGSV,3,1,12,02,21,142,28,05,45,067,28,13,73,049,28,15,67,241,41*7D
$GPGSV,3,2,12,18,10,284,21,20,63,330,30,21,30,312,28,29,32,232,48*75
$GPGSV,3,3,12,30,15,047,25,41,,,42,42,,,36,50,,,36*49
$BDGSV,2,1,06,01,38,144,36,02,35,227,39,03,45,189,41,09,51,260,26*60
$BDGSV,2,2,06,11,16,182,20,13,63,212,39*6C
$GNGGA,073144.00,3637.268786,N,11700.563376,E,1,07,0.8,133.1,M,-4.0,M,,*60
$GNVTG,0.0,T,5.4,M,0.0,N,0.0,K,A*3C
$GNRMC,073144.00,A,3637.268786,N,11700.563376,E,0.0,0.0,121017,5.4,W,A*38
$GPGSA,A,2,02,05,13,15,20,21,29,,,,,,1.2,0.8,0.8*3B
$GLGSA,A,2,68,79,83,85,,,,,,,,,1.2,0.8,0.8*2A
$BDGSA,A,2,03,13,,,,,,,,,,,1.2,0.8,0.8*20
$GLGSV,3,1,10,,,,25,,,,24,70,09,262,20,77,11,033,17*6B
$GLGSV,3,2,10,79,11,126,41,69,51,307,20,84,56,289,21,83,40,192,29*67
$GLGSV,3,3,10,85,13,331,40,68,41,030,30*65
$GPGSV,3,1,12,02,21,142,28,05,45,067,26,13,73,049,28,15,67,241,41*73
$GPGSV,3,2,12,18,10,284,23,20,63,330,28,21,30,312,28,29,32,232,48*7E
$GPGSV,3,3,12,30,15,047,21,41,,,42,42,,,36,50,,,35*4E
$BDGSV,2,1,06,01,38,144,36,02,35,227,38,03,45,189,41,09,51,260,26*61
$BDGSV,2,2,06,13,,,39,11,16,182,*5A
$GNGGA,073145.00,3637.268787,N,11700.563377,E,1,07,0.8,133.1,M,-4.0,M,,*61
$GNVTG,0.0,T,5.4,M,0.0,N,0.0,K,A*3C
$GNRMC,073145.00,A,3637.268787,N,11700.563377,E,0.0,0.0,121017,5.4,W,A*39
$GPGSA,A,2,02,05,13,15,20,21,29,,,,,,1.2,0.8,0.8*3B
$GLGSA,A,2,68,79,83,85,,,,,,,,,1.2,0.8,0.8*2A
$BDGSA,A,2,03,13,,,,,,,,,,,1.2,0.8,0.8*20
$GLGSV,3,1,10,,,,26,,,,23,70,09,262,20,77,11,033,23*68
$GLGSV,3,2,10,79,11,126,40,69,51,307,20,84,56,289,22,83,40,192,27*6B
$GLGSV,3,3,10,85,13,331,40,68,41,030,30*65
$GPGSV,3,1,12,02,21,142,29,05,45,067,27,13,73,049,27,15,67,241,41*7C
$GPGSV,3,2,12,18,10,284,24,20,63,330,28,21,30,312,27,29,32,232,48*76
$GPGSV,3,3,12,30,15,047,21,41,,,41,42,,,36,50,,,36*4E
$BDGSV,2,1,06,01,38,144,35,02,35,227,38,03,45,189,41,09,51,260,24*60
$BDGSV,2,2,06,13,,,39,11,16,182,*5A
$GNGGA,073146.00,3637.268789,N,11700.563377,E,1,08,0.8,133.1,M,-4.0,M,,*63
$GNVTG,0.0,T,5.4,M,0.0,N,0.0,K,A*3C
$GNRMC,073146.00,A,3637.268789,N,11700.563377,E,0.0,0.0,121017,5.4,W,A*34
$GPGSA,A,2,02,05,13,15,18,20,21,29,,,,,1.1,0.8,0.8*31
$GLGSA,A,2,68,79,83,85,,,,,,,,,1.1,0.8,0.8*29
$BDGSA,A,2,03,13,,,,,,,,,,,1.1,0.8,0.8*23
$GLGSV,3,1,10,,,,24,,,,22,70,09,262,20,77,11,033,23*6B
$GLGSV,3,2,10,79,11,126,41,69,51,307,21,84,56,289,23,83,40,192,27*6A
$GLGSV,3,3,10,85,13,331,40,68,41,030,30*65
$GPGSV,3,1,12,02,21,142,30,05,45,067,27,13,73,049,27,15,67,241,41*74
$GPGSV,3,2,12,18,10,284,24,20,63,330,29,21,30,312,28,29,32,232,48*78
$GPGSV,3,3,12,30,15,047,,41,,,41,42,,,35,50,,,35*4D
$BDGSV,2,1,06,01,38,144,35,02,35,227,38,03,45,189,41,09,51,260,24*60
$BDGSV,2,2,06,13,,,39,11,16,182,*5A
$GNGGA,073147.00,3637.268789,N,11700.563376,E,1,08,0.8,133.1,M,-4.0,M,,*63
$GNVTG,0.0,T,5.4,M,0.0,N,0.0,K,A*3C
$GNRMC,073147.00,A,3637.268789,N,11700.563376,E,0.0,0.0,121017,5.4,W,A*34
$GPGSA,A,2,02,05,13,15,18,20,21,29,,,,,1.1,0.8,0.8*31
$GLGSA,A,2,68,79,83,85,,,,,,,,,1.1,0.8,0.8*29
$BDGSA,A,2,03,13,,,,,,,,,,,1.1,0.8,0.8*23
$GLGSV,3,1,10,,,,25,,,,23,70,09,262,19,77,11,033,23*61
$GLGSV,3,2,10,79,11,126,41,69,51,307,21,84,56,289,21,83,40,192,27*68
$GLGSV,3,3,10,85,13,331,40,68,41,030,30*65
$GPGSV,4,1,13,02,21,142,30,05,45,067,28,13,73,049,29,15,67,241,42*70
$GPGSV,4,2,13,18,10,284,23,20,63,330,29,21,30,312,27,29,32,232,48*76
$GPGSV,4,3,13,24,11,178,,30,15,047,,41,,,41,42,,,36*73
$GPGSV,4,4,13,50,,,36*7B
$BDGSV,2,1,06,01,38,144,35,02,35,227,38,03,45,189,41,09,51,260,25*61
$BDGSV,2,2,06,13,,,39,11,16,182,*5A
$GNGGA,073148.00,3637.268790,N,11700.563376,E,1,08,0.8,133.1,M,-4.0,M,,*64
$GNVTG,0.0,T,5.4,M,0.0,N,0.0,K,A*3C
$GNRMC,073148.00,A,3637.268790,N,11700.563376,E,0.0,0.0,121017,5.4,W,A*33
$GPGSA,A,2,02,05,13,15,18,20,21,29,,,,,1.1,0.8,0.8*31
$GLGSA,A,2,68,79,83,85,,,,,,,,,1.1,0.8,0.8*29
$BDGSA,A,2,03,13,,,,,,,,,,,1.1,0.8,0.8*23
$GLGSV,3,1,10,,,,24,,,,24,70,09,262,19,77,11,033,23*67
$GLGSV,3,2,10,79,11,126,41,69,51,307,21,84,56,289,21,83,40,192,26*69
$GLGSV,3,3,10,85,13,331,40,68,41,030,30*65
$GPGSV,4,1,13,02,21,142,31,05,45,067,28,13,73,049,28,15,67,241,41*73
$GPGSV,4,2,13,18,10,284,23,20,63,330,29,21,30,312,26,29,32,232,48*77
$GPGSV,4,3,13,30,15,047,24,24,11,178,,41,,,41,42,,,36*75
$GPGSV,4,4,13,50,,,35*78
$BDGSV,2,1,06,01,38,144,35,02,35,227,38,03,45,189,41,09,51,260,23*67
$BDGSV,2,2,06,13,,,39,11,16,182,*5A
$GNGGA,073149.00,3637.268792,N,11700.563375,E,1,08,0.8,133.1,M,-4.0,M,,*64
$GNVTG,0.0,T,5.4,M,0.0,N,0.0,K,A*3C
$GNRMC,073149.00,A,3637.268792,N,11700.563375,E,0.0,0.0,121017,5.4,W,A*33
$GPGSA,A,2,02,05,13,15,18,20,21,29,,,,,1.1,0.8,0.8*31
$GLGSA,A,2,68,79,83,85,,,,,,,,,1.1,0.8,0.8*29
$BDGSA,A,2,03,13,,,,,,,,,,,1.1,0.8,0.8*23
$GLGSV,3,1,10,,,,23,,,,24,70,09,262,19,77,11,033,23*60
$GLGSV,3,2,10,79,11,126,41,69,51,307,21,84,56,289,21,83,40,192,26*69
$GLGSV,3,3,10,85,13,331,40,68,41,030,30*65
$GPGSV,4,1,13,02,21,142,32,05,45,067,27,13,73,049,29,15,67,241,41*7E
$GPGSV,4,2,13,18,10,284,24,20,63,330,30,21,30,312,24,29,32,232,48*7A
$GPGSV,4,3,13,30,15,047,25,24,11,178,,41,,,41,42,,,35*77
$GPGSV,4,4,13,50,,,36*7B
$BDGSV,2,1,06,01,38,144,36,02,35,227,38,03,45,189,41,09,51,260,24*63
$BDGSV,2,2,06,13,,,39,11,16,182,*5A
$GNGGA,073150.00,3637.268793,N,11700.563373,E,1,08,0.8,133.1,M,-4.0,M,,*6B
$GNVTG,0.0,T,5.4,M,0.0,N,0.0,K,A*3C
$GNRMC,073150.00,A,3637.268793,N,11700.563373,E,0.0,0.0,121017,5.4,W,A*3C
$GPGSA,A,2,02,05,13,15,18,20,21,29,,,,,1.1,0.8,0.8*31
$GLGSA,A,2,68,79,83,85,,,,,,,,,1.1,0.8,0.8*29
$BDGSA,A,2,03,,,,,,,,,,,,1.1,0.8,0.8*21
$GLGSV,3,1,10,,,,24,,,,24,70,09,262,19,77,11,033,23*67
$GLGSV,3,2,10,79,11,126,41,69,51,307,21,84,56,289,21,83,40,192,26*69
$GLGSV,3,3,10,85,13,331,40,68,41,030,30*65
$GPGSV,4,1,13,02,21,142,33,05,45,067,25,13,73,049,29,15,67,241,41*7D
$GPGSV,4,2,13,18,10,284,26,20,63,330,30,21,30,312,25,29,32,232,48*79
$GPGSV,4,3,13,30,15,047,27,24,11,178,,41,,,42,42,,,35*76
$GPGSV,4,4,13,50,,,35*78
$BDGSV,2,1,06,01,38,144,35,02,35,227,38,03,45,189,41,09,51,260,24*60
$BDGSV,2,2,06,13,,,40,11,16,182,*54
$GNGGA,073151.00,3637.268794,N,11700.563372,E,1,08,0.8,133.1,M,-4.0,M,,*6C
$GNVTG,0.0,T,5.4,M,0.0,N,0.0,K,A*3C
$GNRMC,073151.00,A,3637.268794,N,11700.563372,E,0.0,0.0,121017,5.4,W,A*3B
$GPGSA,A,2,02,05,13,15,18,20,21,29,,,,,1.1,0.8,0.8*31
$GLGSA,A,2,68,79,83,85,,,,,,,,,1.1,0.8,0.8*29
$BDGSA,A,2,03,,,,,,,,,,,,1.1,0.8,0.8*21
$GLGSV,3,1,10,,,,21,,,,24,70,09,262,19,77,11,033,23*62
$GLGSV,3,2,10,79,11,126,41,69,51,307,22,84,56,289,21,83,40,192,27*6B
$GLGSV,3,3,10,85,13,331,40,68,41,030,30*65
$GPGSV,4,1,13,02,21,142,33,05,45,067,25,13,73,049,29,15,67,241,42*7E
$GPGSV,4,2,13,18,10,284,24,20,63,330,30,21,30,312,25,29,32,232,48*7B
$GPGSV,4,3,13,30,15,047,27,24,11,178,,41,,,41,42,,,35*75
$GPGSV,4,4,13,50,,,36*7B
$BDGSV,2,1,06,01,38,144,36,02,35,227,38,03,45,189,41,09,51,260,24*63
$BDGSV,2,2,06,13,,,39,11,16,182,*5A
$GNGGA,073152.00,3637.268796,N,11700.563371,E,1,08,0.8,133.1,M,-4.0,M,,*6E
$GNVTG,0.0,T,5.4,M,0.0,N,0.0,K,A*3C
$GNRMC,073152.00,A,3637.268796,N,11700.563371,E,0.0,0.0,121017,5.4,W,A*39
$GPGSA,A,2,02,05,13,15,18,20,21,29,,,,,1.1,0.8,0.8*31
$GLGSA,A,2,68,79,83,85,,,,,,,,,1.1,0.8,0.8*29
$BDGSA,A,2,03,,,,,,,,,,,,1.1,0.8,0.8*21
$GLGSV,3,1,10,,,,21,,,,25,70,09,262,19,77,11,033,16*65
$GLGSV,3,2,10,79,11,126,41,69,51,307,22,84,56,289,17,83,40,192,27*6E
$GLGSV,3,3,10,85,13,331,40,68,41,030,30*65
$GPGSV,4,1,13,02,21,142,33,05,45,067,23,13,73,049,29,15,67,241,42*78
$GPGSV,4,2,13,18,10,284,26,20,63,330,30,21,30,312,23,29,32,232,49*7E
$GPGSV,4,3,13,30,15,047,27,24,11,178,,41,,,42,42,,,35*76
$GPGSV,4,4,13,50,,,36*7B
$BDGSV,2,1,06,01,38,144,35,02,35,227,38,03,45,189,41,09,51,260,23*67
$BDGSV,2,2,06,13,,,40,11,16,182,*54
$GNGGA,073153.00,3637.268796,N,11700.563369,E,1,08,0.8,133.1,M,-4.0,M,,*66
$GNVTG,0.0,T,5.4,M,0.0,N,0.0,K,A*3C
$GNRMC,073153.00,A,3637.268796,N,11700.563369,E,0.0,0.0,121017,5.4,W,A*31
$GPGSA,A,2,02,05,13,15,18,20,21,29,,,,,1.1,0.8,0.8*31
$GLGSA,A,2,68,79,83,85,,,,,,,,,1.1,0.8,0.8*29
$BDGSA,A,2,03,,,,,,,,,,,,1.1,0.8,0.8*21
$GLGSV,3,1,10,,,,21,,,,23,70,09,262,19,77,11,033,16*63
$GLGSV,3,2,10,79,11,126,41,69,51,307,23,84,56,289,21,83,40,192,27*6A
$GLGSV,3,3,10,85,13,331,40,68,41,030,31*64
$GPGSV,4,1,13,02,21,142,33,05,45,067,23,13,73,049,28,15,67,241,42*79
$GPGSV,4,2,13,18,10,284,23,20,63,330,31,21,30,312,25,29,32,232,49*7C
$GPGSV,4,3,13,30,15,047,27,24,11,178,,41,,,42,42,,,35*76
$GPGSV,4,4,13,50,,,35*78
$BDGSV,2,1,06,01,38,144,36,02,35,227,38,03,45,189,41,09,51,260,23*64
$BDGSV,2,2,06,13,,,39,11,16,182,*5A
$GNGGA,073154.00,3637.268797,N,11700.563369,E,1,08,0.8,133.1,M,-4.0,M,,*60
$GNVTG,0.0,T,5.4,M,0.0,N,0.0,K,A*3C
$GNRMC,073154.00,A,3637.268797,N,11700.563369,E,0.0,0.0,121017,5.4,W,A*37
$GPGSA,A,2,02,05,13,15,18,20,21,29,,,,,1.1,0.8,0.8*31
$GLGSA,A,2,68,79,83,85,,,,,,,,,1.1,0.8,0.8*29
$BDGSA,A,2,03,,,,,,,,,,,,1.1,0.8,0.8*21
$GLGSV,3,1,10,,,,21,,,,22,70,09,262,19,77,11,033,16*62
$GLGSV,3,2,10,79,11,126,41,69,51,307,24,84,56,289,21,83,40,192,27*6D
$GLGSV,3,3,10,85,13,331,40,68,41,030,32*67
$GPGSV,4,1,13,02,21,142,34,05,45,067,22,13,73,049,28,15,67,241,42*7F
$GPGSV,4,2,13,18,10,284,23,20,63,330,32,21,30,312,21,29,32,232,48*7A
$GPGSV,4,3,13,30,14,046,26,24,11,178,,41,,,41,42,,,35*74
$GPGSV,4,4,13,50,,,35*78
$BDGSV,2,1,06,01,38,144,36,02,35,227,38,03,45,189,41,09,51,260,24*63
$BDGSV,2,2,06,13,,,40,11,16,182,*54
$GNGGA,073155.00,3637.268798,N,11700.563367,E,1,08,0.8,133.1,M,-4.0,M,,*60
$GNVTG,0.0,T,5.4,M,0.0,N,0.0,K,A*3C
$GNRMC,073155.00,A,3637.268798,N,11700.563367,E,0.0,0.0,121017,5.4,W,A*37
$GPGSA,A,2,02,05,13,15,18,20,21,29,,,,,1.1,0.8,0.8*31
$GLGSA,A,2,68,79,83,85,,,,,,,,,1.1,0.8,0.8*29
$BDGSA,A,2,03,,,,,,,,,,,,1.1,0.8,0.8*21
$GLGSV,3,1,10,,,,21,,,,23,70,09,262,19,77,11,033,16*63
$GLGSV,3,2,10,79,11,126,41,69,51,307,24,84,56,289,21,83,40,192,26*6C
$GLGSV,3,3,10,85,13,331,40,68,41,030,32*67
$GPGSV,4,1,13,02,21,142,35,05,45,067,22,13,73,049,29,15,67,241,42*7F
$GPGSV,4,2,13,18,10,284,19,20,63,330,32,21,30,312,22,29,32,232,48*70
$GPGSV,4,3,13,30,14,046,26,24,11,178,,41,,,42,42,,,35*77
$GPGSV,4,4,13,50,,,36*7B
$BDGSV,2,1,06,01,38,144,35,02,35,227,38,03,45,189,41,09,51,260,24*60
$BDGSV,2,2,06,13,,,40,11,16,182,*54
$GNGGA,073156.00,3637.268801,N,11700.563362,E,1,08,0.8,133.1,M,-4.0,M,,*69
$GNVTG,0.0,T,5.4,M,0.0,N,0.0,K,A*3C
$GNRMC,073156.00,A,3637.268801,N,11700.563362,E,0.0,0.0,121017,5.4,W,A*3E
$GPGSA,A,2,02,05,13,15,18,20,21,29,,,,,1.1,0.8,0.8*31
$GLGSA,A,2,68,79,83,85,,,,,,,,,1.1,0.8,0.8*29
$BDGSA,A,2,03,,,,,,,,,,,,1.1,0.8,0.8*21
$GLGSV,3,1,10,,,,21,,,,23,70,09,262,19,77,11,033,16*63
$GLGSV,3,2,10,79,11,126,41,69,51,307,22,84,56,289,21,83,40,192,26*6A
$GLGSV,3,3,10,85,13,331,40,68,41,030,33*66
$GPGSV,4,1,13,02,21,142,35,05,45,067,21,13,73,049,30,15,67,241,42*74
$GPGSV,4,2,13,18,10,284,21,20,63,330,31,21,30,312,23,29,32,232,48*79
$GPGSV,4,3,13,30,14,046,24,24,11,178,,41,,,41,42,,,35*76
$GPGSV,4,4,13,50,,,36*7B
$BDGSV,2,1,06,01,38,144,35,02,35,227,38,03,45,189,41,09,51,260,23*67
$BDGSV,2,2,06,13,,,40,11,16,182,*54
$GNGGA,073157.00,3637.268803,N,11700.563360,E,1,08,0.8,133.1,M,-4.0,M,,*68
$GNVTG,0.0,T,5.4,M,0.0,N,0.0,K,A*3C
$GNRMC,073157.00,A,3637.268803,N,11700.563360,E,0.0,0.0,121017,5.4,W,A*3F
$GPGSA,A,2,02,05,13,15,18,20,21,29,,,,,1.1,0.8,0.8*31
$GLGSA,A,2,68,79,83,85,,,,,,,,,1.1,0.8,0.8*29
$BDGSA,A,2,03,,,,,,,,,,,,1.1,0.8,0.8*21
$GLGSV,3,1,10,,,,21,,,,23,70,09,262,19,77,11,033,16*63
$GLGSV,3,2,10,79,11,126,40,69,51,307,22,84,56,289,22,83,40,192,27*69
$GLGSV,3,3,10,85,13,331,40,68,41,030,32*67
$GPGSV,4,1,13,02,21,142,35,05,45,067,21,13,73,049,27,15,67,241,42*72
$GPGSV,4,2,13,18,10,284,21,20,63,330,32,21,30,312,20,29,32,232,48*79
$GPGSV,4,3,13,30,14,046,24,24,11,178,,41,,,41,42,,,35*76
$GPGSV,4,4,13,50,,,36*7B
$BDGSV,2,1,06,01,38,144,35,02,35,227,38,03,45,189,41,09,51,260,23*67
$BDGSV,2,2,06,13,,,40,11,16,182,*54
$GNGGA,073158.00,3637.268806,N,11700.563355,E,1,07,0.9,133.1,M,-4.0,M,,*6A
$GNVTG,0.0,T,5.4,M,0.0,N,0.0,K,A*3C
$GNRMC,073158.00,A,3637.268806,N,11700.563355,E,0.0,0.0,121017,5.4,W,A*33
$GPGSA,A,2,02,13,15,18,20,21,29,,,,,,1.2,0.9,0.8*36
$GLGSA,A,2,68,79,83,85,,,,,,,,,1.2,0.9,0.8*2B
$BDGSA,A,2,03,,,,,,,,,,,,1.2,0.9,0.8*23
$GLGSV,3,1,10,,,,21,,,,23,70,09,262,19,77,11,033,16*63
$GLGSV,3,2,10,79,11,126,41,69,51,307,24,84,56,289,23,83,40,192,27*6F
$GLGSV,3,3,10,85,13,331,40,68,41,030,32*67
$GPGSV,4,1,13,02,21,142,36,05,45,067,21,15,67,241,42,18,10,284,20*7B
$GPGSV,4,2,13,20,63,330,33,21,30,312,20,29,32,232,48,30,14,046,24*7F
$GPGSV,4,3,13,13,73,049,,24,11,178,,41,,,42,42,,,36*7F
$GPGSV,4,4,13,50,,,36*7B
$BDGSV,2,1,06,01,38,144,35,02,35,227,38,03,45,189,41,09,51,260,23*67
$BDGSV,2,2,06,13,,,40,11,16,182,*54
$GNGGA,073159.00,3637.268808,N,11700.563351,E,1,06,0.9,133.1,M,-4.0,M,,*60
$GNVTG,0.0,T,5.4,M,0.0,N,0.0,K,A*3C
$GNRMC,073159.00,A,3637.268808,N,11700.563351,E,0.0,0.0,121017,5.4,W,A*38
$GPGSA,A,2,02,13,15,20,21,29,,,,,,,1.2,0.9,0.8*3F
$GLGSA,A,2,68,79,83,85,,,,,,,,,1.2,0.9,0.8*2B
$BDGSA,A,2,03,,,,,,,,,,,,1.2,0.9,0.8*23
$GLGSV,3,1,10,,,,15,,,,18,70,09,262,19,77,11,033,16*6C
$GLGSV,3,2,10,79,11,126,40,69,51,307,24,84,56,289,23,83,40,192,27*6E
$GLGSV,3,3,10,85,13,331,40,68,41,030,33*66
$GPGSV,4,1,13,02,21,142,36,05,45,067,19,13,73,049,28,15,67,241,42*75
$GPGSV,4,2,13,18,10,284,20,20,63,330,32,21,30,312,20,29,32,232,49*79
$GPGSV,4,3,13,30,14,046,26,24,11,178,,41,,,42,42,,,36*74
$GPGSV,4,4,13,50,,,36*7B
$BDGSV,2,1,06,01,38,144,35,02,35,227,38,03,45,189,41,09,51,260,23*67
$BDGSV,2,2,06,13,,,40,11,16,182,*54
$GNGGA,073200.00,3637.268807,N,11700.563345,E,1,05,1.0,133.1,M,-4.0,M,,*6E
$GNVTG,0.0,T,5.4,M,0.0,N,0.0,K,A*3C
$GNRMC,073200.00,A,3637.268807,N,11700.563345,E,0.0,0.0,121017,5.4,W,A*3D
$GPGSA,A,2,02,13,15,20,29,,,,,,,,1.3,1.0,0.8*35
$GLGSA,A,2,68,79,83,85,,,,,,,,,1.3,1.0,0.8*22
$BDGSA,A,2,03,,,,,,,,,,,,1.3,1.0,0.8*2A
$GLGSV,3,1,10,,,,23,,,,22,70,09,262,19,77,11,033,16*60
$GLGSV,3,2,10,79,11,126,40,69,51,307,24,84,56,289,24,83,40,192,27*69
$GLGSV,3,3,10,85,13,331,40,68,41,030,32*67
$GPGSV,4,1,13,02,21,142,36,05,45,067,24,13,73,049,28,15,67,241,42*7B
$GPGSV,4,2,13,18,10,284,20,20,63,330,33,21,30,312,20,29,32,232,48*79
$GPGSV,4,3,13,30,14,046,24,24,11,178,,41,,,42,42,,,36*76
$GPGSV,4,4,13,50,,,36*7B
$BDGSV,2,1,06,01,38,144,35,02,35,227,38,03,45,189,41,09,51,260,23*67
$BDGSV,2,2,06,13,,,40,11,16,182,*54
$GNGGA,073201.00,3637.268809,N,11700.563341,E,1,06,0.9,133.1,M,-4.0,M,,*6E
$GNVTG,0.0,T,5.4,M,0.0,N,0.0,K,A*3C
$GNRMC,073201.00,A,3637.268809,N,11700.563341,E,0.0,0.0,121017,5.4,W,A*36
$GPGSA,A,2,02,05,13,15,20,29,,,,,,,1.2,0.9,0.8*39
$GLGSA,A,2,68,79,83,85,,,,,,,,,1.2,0.9,0.8*2B
$BDGSA,A,2,03,,,,,,,,,,,,1.2,0.9,0.8*23
$GLGSV,3,1,10,,,,24,,,,21,70,09,262,19,77,11,033,16*64
$GLGSV,3,2,10,79,11,126,40,69,51,307,25,84,56,289,23,83,40,192,26*6E
$GLGSV,3,1,10,,,,24,,,,22,70,09,262,19,77,11,033,16*67
$GLGSV,3,2,10,79,11,126,40,69,51,307,25,84,56,289,23,83,40,192,26*6E
$GLGSV,3,3,10,85,13,331,40,68,41,030,31*64
$GPGSV,4,1,13,02,21,142,37,05,45,067,21,13,73,049,26,15,67,241,42*71
$GPGSV,4,2,13,18,10,284,18,20,63,330,32,21,30,312,20,29,32,232,48*73
$GPGSV,4,3,13,30,14,046,27,24,11,178,,41,,,42,42,,,35*76
$GPGSV,4,4,13,50,,,36*7B
$BDGSV,2,1,06,01,38,144,35,02,35,227,38,03,45,189,41,09,51,260,22*66
$BDGSV,2,2,06,13,,,40,11,16,182,*54
$GNGGA,073203.00,3637.268818,N,11700.563326,E,1,06,0.9,133.1,M,-4.0,M,,*6D
$GNVTG,0.0,T,5.4,M,0.0,N,0.0,K,A*3C
$GNRMC,073203.00,A,3637.268818,N,11700.563326,E,0.0,0.0,121017,5.4,W,A*35
$GPGSA,A,2,02,05,13,15,20,29,,,,,,,1.2,0.9,0.8*39
$GLGSA,A,2,68,79,83,85,,,,,,,,,1.2,0.9,0.8*2B
$BDGSA,A,2,03,,,,,,,,,,,,1.2,0.9,0.8*23
$GLGSV,3,1,10,,,,24,,,,22,70,09,262,15,77,11,033,16*6B
$GLGSV,3,2,10,79,11,126,40,69,51,307,25,84,56,289,23,83,40,192,26*6E
$GLGSV,3,3,10,85,13,331,40,68,41,030,31*64
$GPGSV,4,1,13,02,21,142,37,05,45,067,21,15,67,241,42,18,10,284,18*71
$GPGSV,4,2,13,20,63,330,32,21,30,312,20,29,32,232,48,30,14,046,26*7C
$GPGSV,4,3,13,13,73,049,,24,11,178,,41,,,41,42,,,35*7F
$GPGSV,4,4,13,50,,,36*7B
$BDGSV,2,1,06,01,38,144,36,02,35,227,38,03,45,189,41,09,51,260,23*64
$BDGSV,2,2,06,13,,,40,11,16,182,*54
$GNGGA,073204.00,3637.268824,N,11700.563318,E,1,06,0.9,133.1,M,-4.0,M,,*68
$GNVTG,0.0,T,5.4,M,0.0,N,0.0,K,A*3C
$GNRMC,073204.00,A,3637.268824,N,11700.563318,E,0.0,0.0,121017,5.4,W,A*30
$GPGSA,A,2,02,05,13,15,20,29,,,,,,,1.2,0.9,0.8*39
$GLGSA,A,2,68,79,83,85,,,,,,,,,1.2,0.9,0.8*2B
$BDGSA,A,2,03,,,,,,,,,,,,1.2,0.9,0.8*23
$GLGSV,3,1,10,,,,27,,,,23,70,09,262,15,77,11,033,16*69
$GLGSV,3,2,10,79,11,126,40,69,51,307,25,84,56,289,23,83,40,192,26*6E
$GLGSV,3,3,10,85,13,331,40,68,41,030,31*64
$GPGSV,4,1,13,02,21,142,37,05,45,067,23,15,67,241,42,18,10,284,18*73
$GPGSV,4,2,13,20,63,330,31,21,30,312,20,29,32,232,48,30,14,046,25*7C
$GPGSV,4,3,13,13,73,049,,24,11,178,,41,,,42,42,,,35*7C
$GPGSV,4,4,13,50,,,36*7B
$BDGSV,2,1,06,01,38,144,35,02,35,227,38,03,45,189,41,09,51,260,24*60
$BDGSV,2,2,06,13,,,41,11,16,182,*55
$GNGGA,073205.00,3637.268827,N,11700.563312,E,1,06,0.9,133.1,M,-4.0,M,,*60
$GNVTG,0.0,T,5.4,M,0.0,N,0.0,K,A*3C
$GNRMC,073205.00,A,3637.268827,N,11700.563312,E,0.0,0.0,121017,5.4,W,A*38
$GPGSA,A,2,02,05,13,15,20,29,,,,,,,1.2,0.9,0.8*39
$GLGSA,A,2,68,79,83,85,,,,,,,,,1.2,0.9,0.8*2B
$BDGSA,A,2,03,,,,,,,,,,,,1.2,0.9,0.8*23
$GLGSV,3,1,10,,,,26,,,,21,70,09,262,15,77,11,033,16*6A
$GLGSV,3,2,10,79,11,126,40,69,51,307,25,84,56,289,25,83,40,192,26*68
$GLGSV,3,3,10,85,13,331,40,68,41,030,31*64
$GPGSV,4,1,13,02,21,142,37,05,45,067,22,15,67,241,42,18,10,284,21*78
$GPGSV,4,2,13,20,63,330,31,21,30,312,20,29,32,232,48,30,14,046,25*7C
$GPGSV,4,3,13,13,73,049,,24,11,178,,41,,,42,42,,,35*7C
$GPGSV,4,4,13,50,,,36*7B
$BDGSV,2,1,06,01,38,144,35,02,35,227,38,03,45,189,41,09,51,260,25*61
$BDGSV,2,2,06,13,,,41,11,16,182,*55
$GNGGA,073206.00,3637.268829,N,11700.563307,E,1,06,0.9,133.1,M,-4.0,M,,*69
$GNVTG,0.0,T,5.4,M,0.0,N,0.0,K,A*3C
$GNRMC,073206.00,A,3637.268829,N,11700.563307,E,0.0,0.0,121017,5.4,W,A*31
$GPGSA,A,2,02,05,13,15,20,29,,,,,,,1.2,0.9,0.8*39
$GLGSA,A,2,68,79,83,85,,,,,,,,,1.2,0.9,0.8*2B
$BDGSA,A,2,03,,,,,,,,,,,,1.2,0.9,0.8*23
$GLGSV,3,1,10,,,,25,,,,23,70,09,262,15,77,11,033,20*6E
$GLGSV,3,2,10,79,11,126,40,69,51,307,25,84,56,289,24,83,40,192,26*69
$GLGSV,3,3,10,85,13,331,40,68,41,030,31*64
$GPGSV,4,1,13,02,21,142,38,05,45,067,23,13,73,049,26,15,67,241,42*7C
$GPGSV,4,2,13,18,10,284,21,20,63,330,31,21,30,312,20,29,32,232,48*7A
$GPGSV,4,3,13,30,14,046,23,24,11,178,,41,,,42,42,,,35*72
$GPGSV,4,4,13,50,,,36*7B
$BDGSV,2,1,06,01,38,144,36,02,35,227,38,03,45,189,41,09,51,260,25*62
$BDGSV,2,2,06,13,,,41,11,16,182,*55
$GNGGA,073207.00,3637.268831,N,11700.563300,E,1,05,1.0,133.1,M,-4.0,M,,*6D
$GNVTG,0.0,T,5.4,M,0.0,N,0.0,K,A*3C
$GNRMC,073207.00,A,3637.268831,N,11700.563300,E,0.0,0.0,121017,5.4,W,A*3E
$GPGSA,A,2,02,13,15,20,29,,,,,,,,1.3,1.0,0.8*35
$GLGSA,A,2,68,79,83,85,,,,,,,,,1.3,1.0,0.8*22
$BDGSA,A,2,03,,,,,,,,,,,,1.3,1.0,0.8*2A
$GLGSV,3,1,10,,,,27,,,,25,70,09,262,15,77,11,033,21*6B
$GLGSV,3,2,10,79,11,126,40,69,51,307,24,84,56,289,23,83,40,192,25*6C
$GLGSV,3,3,10,85,13,331,40,68,41,030,31*64
$GPGSV,4,1,13,02,21,142,36,05,45,067,26,15,67,241,42,18,10,284,21*7D
$GPGSV,4,2,13,20,63,330,30,21,30,312,20,29,32,232,48,30,14,046,22*7A
$GPGSV,4,3,13,13,73,049,,24,11,178,,41,,,42,42,,,35*7C
$GPGSV,4,4,13,50,,,36*7B
$BDGSV,2,1,06,01,38,144,36,02,35,227,38,03,45,189,41,09,51,260,23*64
$BDGSV,2,2,06,13,,,41,11,16,182,*55
$GNGGA,073208.00,3637.268834,N,11700.563294,E,1,06,0.9,133.1,M,-4.0,M,,*60
$GNVTG,0.0,T,5.4,M,0.0,N,0.0,K,A*3C
$GNRMC,073208.00,A,3637.268834,N,11700.563294,E,0.0,0.0,121017,5.4,W,A*38
$GPGSA,A,2,02,05,13,15,20,29,,,,,,,1.2,0.9,0.8*39
$GLGSA,A,2,68,79,83,85,,,,,,,,,1.2,0.9,0.8*2B
$BDGSA,A,2,03,,,,,,,,,,,,1.2,0.9,0.8*23
$GLGSV,3,1,10,78,,,27,,,,24,70,09,262,15,77,11,033,21*65
$GLGSV,3,2,10,79,13,126,40,69,51,307,22,84,56,289,22,83,39,192,23*61
$GLGSV,3,3,10,85,14,331,40,68,41,030,30*62
$GPGSV,4,1,13,02,21,142,37,05,45,067,26,15,67,241,42,18,10,284,22*7F
$GPGSV,4,2,13,20,63,330,30,21,30,312,20,29,32,232,48,30,14,046,21*79
$GPGSV,4,3,13,13,73,049,,24,11,178,,41,,,41,42,,,36*7C
$GPGSV,4,4,13,50,,,35*78
$BDGSV,2,1,06,01,38,144,36,02,35,227,38,03,45,189,41,09,51,260,24*63
$BDGSV,2,2,06,13,,,41,11,16,182,*55
$GNGGA,073209.00,3637.268836,N,11700.563290,E,1,06,0.9,133.1,M,-4.0,M,,*67
$GNVTG,0.0,T,5.4,M,0.0,N,0.0,K,A*3C
$GNRMC,073209.00,A,3637.268836,N,11700.563290,E,0.0,0.0,121017,5.4,W,A*3F
$GPGSA,A,2,02,05,13,15,20,29,,,,,,,1.2,0.9,0.8*39
$GLGSA,A,2,68,79,83,85,,,,,,,,,1.2,0.9,0.8*2B
$BDGSA,A,2,03,,,,,,,,,,,,1.2,0.9,0.8*23
$GLGSV,3,1,10,78,,,26,,,,23,70,09,262,15,77,11,033,21*63
$GLGSV,3,2,10,79,13,126,40,69,51,307,23,84,56,289,22,83,39,192,23*60
$GLGSV,3,3,10,85,14,331,40,68,41,030,30*62
$GPGSV,4,1,13,02,21,142,37,05,45,067,26,15,67,241,42,18,10,284,21*7C
$GPGSV,4,2,13,20,63,330,29,29,32,232,48,13,73,049,,21,30,312,*7F
$GPGSV,4,3,13,24,11,178,,30,14,046,,41,,,41,42,,,34*71
$GPGSV,4,4,13,50,,,36*7B
$BDGSV,2,1,06,01,38,144,36,02,35,227,38,03,45,189,41,09,51,260,24*63
$BDGSV,2,2,06,13,,,41,11,16,182,*55
$GNGGA,073210.00,3637.268838,N,11700.563286,E,1,06,0.9,133.1,M,-4.0,M,,*66
$GNVTG,0.0,T,5.4,M,0.0,N,0.0,K,A*3C
$GNRMC,073210.00,A,3637.268838,N,11700.563286,E,0.0,0.0,121017,5.4,W,A*3E
$GPGSA,A,2,02,05,13,15,20,29,,,,,,,1.2,0.9,0.8*39
$GLGSA,A,2,68,79,83,85,,,,,,,,,1.2,0.9,0.8*2B
$BDGSA,A,2,03,,,,,,,,,,,,1.2,0.9,0.8*23
$GLGSV,3,1,10,78,,,27,,,,24,70,09,262,15,77,11,033,21*65
$GLGSV,3,2,10,79,13,126,41,69,51,307,23,84,56,289,23,83,39,192,22*61
$GLGSV,3,3,10,85,14,331,40,68,41,030,30*62
$GPGSV,4,1,13,02,21,142,37,05,45,067,25,15,67,241,42,18,10,284,21*7F
$GPGSV,4,2,13,20,63,330,29,29,32,232,48,13,73,049,,21,30,312,*7F
$GPGSV,4,3,13,24,11,178,,30,14,046,,41,,,41,42,,,34*71
$GPGSV,4,4,13,50,,,36*7B
$BDGSV,2,1,06,01,38,144,35,02,35,227,38,03,45,189,41,09,51,260,21*65
$BDGSV,2,2,06,13,,,41,11,16,182,*55
$GNGGA,073211.00,3637.268840,N,11700.563282,E,1,06,0.9,133.1,M,-4.0,M,,*6C
$GNVTG,0.0,T,5.4,M,0.0,N,0.0,K,A*3C
$GNRMC,073211.00,A,3637.268840,N,11700.563282,E,0.0,0.0,121017,5.4,W,A*34
$GPGSA,A,2,02,05,13,15,20,29,,,,,,,1.2,0.9,0.8*39
$GLGSA,A,2,68,79,83,85,,,,,,,,,1.2,0.9,0.8*2B
$BDGSA,A,2,03,,,,,,,,,,,,1.2,0.9,0.8*23
$GLGSV,3,1,10,78,,,27,,,,22,70,09,262,15,77,11,033,21*63
$GLGSV,3,2,10,79,13,126,41,69,51,307,24,84,56,289,22,83,39,192,21*64
$GLGSV,3,3,10,85,14,331,40,68,41,030,30*62
$GPGSV,4,1,13,02,21,142,36,05,45,067,28,15,67,241,42,18,10,284,23*71
$GPGSV,4,2,13,20,63,330,29,29,32,232,48,13,73,049,,21,30,312,*7F
$GPGSV,4,3,13,24,11,178,,30,14,046,,41,,,41,42,,,35*70
$GPGSV,4,4,13,50,,,35*78
$BDGSV,2,1,06,01,38,144,36,02,35,227,39,03,45,189,41,09,51,260,21*67
$BDGSV,2,2,06,13,,,41,11,16,182,*55
$GNGGA,073212.00,3637.268842,N,11700.563277,E,1,06,0.9,133.1,M,-4.0,M,,*67
$GNVTG,0.0,T,5.4,M,0.0,N,0.0,K,A*3C
$GNRMC,073212.00,A,3637.268842,N,11700.563277,E,0.0,0.0,121017,5.4,W,A*3F
$GPGSA,A,2,02,05,13,15,20,29,,,,,,,1.2,0.9,0.8*39
$GLGSA,A,2,68,79,83,85,,,,,,,,,1.2,0.9,0.8*2B
$BDGSA,A,2,03,,,,,,,,,,,,1.2,0.9,0.8*23
$GLGSV,3,1,10,78,,,26,,,,24,70,09,262,15,77,11,033,21*64
$GLGSV,3,2,10,79,13,126,41,69,51,307,22,84,56,289,22,83,39,192,21*62
$GLGSV,3,3,10,85,14,331,40,68,41,030,30*62
$GPGSV,4,1,13,02,21,142,36,05,45,067,28,15,67,241,43,18,10,284,22*71
$GPGSV,4,2,13,20,63,330,28,29,32,232,48,13,73,049,,21,30,312,*7E
$GPGSV,4,3,13,24,11,178,,30,14,046,,41,,,42,42,,,36*70
$GPGSV,4,4,13,50,,,36*7B
$BDGSV,2,1,06,01,38,144,36,02,35,227,39,03,45,189,41,09,51,260,22*64
$BDGSV,2,2,06,13,,,41,11,16,182,*55
$GNGGA,073213.00,3637.268842,N,11700.563274,E,1,05,0.9,133.1,M,-4.0,M,,*66
$GNVTG,0.0,T,5.4,M,0.0,N,0.0,K,A*3C
$GNRMC,073213.00,A,3637.268842,N,11700.563274,E,0.0,0.0,121017,5.4,W,A*3D
$GPGSA,A,2,02,05,15,20,29,,,,,,,,1.2,0.9,0.8*3B
$GLGSA,A,2,68,79,83,85,,,,,,,,,1.2,0.9,0.8*2B
$BDGSA,A,2,03,,,,,,,,,,,,1.2,0.9,0.8*23
$GLGSV,3,1,10,78,,,26,,,,24,70,09,262,15,77,11,033,21*64
$GLGSV,3,2,10,79,13,126,41,69,51,307,22,84,56,289,23,83,39,192,21*63
$GLGSV,3,3,10,85,14,331,39,68,41,030,30*6C
$GPGSV,4,1,13,02,21,142,36,05,45,067,28,15,67,241,43,18,10,284,22*71
$GPGSV,4,2,13,20,63,330,28,29,32,232,48,13,73,049,,21,30,312,*7E
$GPGSV,4,3,13,24,11,178,,30,14,046,,41,,,41,42,,,35*70
$GPGSV,4,4,13,50,,,37*7A
$BDGSV,2,1,06,01,38,144,36,02,35,227,38,03,45,189,41,09,51,260,22*65
$BDGSV,2,2,06,13,,,41,11,16,182,*55
$GNGGA,073214.00,3637.268842,N,11700.563271,E,1,05,1.0,133.1,M,-4.0,M,,*6C
$GNVTG,0.0,T,5.4,M,0.0,N,0.0,K,A*3C
$GNRMC,073214.00,A,3637.268842,N,11700.563271,E,0.0,0.0,121017,5.4,W,A*3F
$GPGSA,A,2,02,05,15,20,29,,,,,,,,1.3,1.0,0.9*33
$GLGSA,A,2,68,79,85,,,,,,,,,,1.3,1.0,0.9*28
$BDGSA,A,2,03,,,,,,,,,,,,1.3,1.0,0.9*2B
$GLGSV,3,1,10,78,,,26,,,,21,70,09,262,15,77,11,033,21*61
$GLGSV,3,2,10,79,13,126,41,69,51,307,22,84,56,289,23,83,39,192,20*62
$GLGSV,3,3,10,85,14,331,39,68,41,030,30*6C
$GPGSV,4,1,13,02,21,142,36,05,45,067,28,15,67,241,43,18,10,284,21*72
$GPGSV,4,2,13,20,63,330,28,21,30,312,19,29,32,232,48,13,73,049,*76
$GPGSV,4,3,13,24,11,178,,30,14,046,,41,,,41,42,,,35*70
$GPGSV,4,4,13,50,,,36*7B
$BDGSV,2,1,06,01,38,144,36,02,35,227,38,03,45,189,41,09,51,260,22*65
$BDGSV,2,2,06,13,,,41,11,16,182,*55
$GNGGA,073215.00,3637.268841,N,11700.563270,E,1,05,1.0,133.1,M,-4.0,M,,*6F
$GNVTG,0.0,T,5.4,M,0.0,N,0.0,K,A*3C
$GNRMC,073215.00,A,3637.268841,N,11700.563270,E,0.0,0.0,121017,5.4,W,A*3C
$GPGSA,A,2,02,05,15,20,29,,,,,,,,1.3,1.0,0.9*33
$GLGSA,A,2,68,79,85,,,,,,,,,,1.3,1.0,0.9*28
$BDGSA,A,2,03,,,,,,,,,,,,1.3,1.0,0.9*2B
$GLGSV,3,1,10,78,,,26,,,,23,70,09,262,14,77,11,033,21*62
$GLGSV,3,2,10,79,13,126,41,69,51,307,22,84,56,289,25,83,39,192,20*64
$GLGSV,3,3,10,85,14,331,39,68,41,030,29*64
$GPGSV,4,1,13,02,21,142,36,05,45,067,28,15,67,241,43,18,10,284,22*71
$GPGSV,4,2,13,20,63,330,28,21,30,312,19,29,32,232,48,13,73,049,*76
$GPGSV,4,3,13,24,11,178,,30,14,046,,41,,,41,42,,,36*73
$GPGSV,4,4,13,50,,,36*7B
$BDGSV,2,1,06,01,38,144,35,02,35,227,39,03,45,189,41,09,51,260,22*67
$BDGSV,2,2,06,13,,,41,11,16,182,*55
$GNGGA,073216.00,3637.268843,N,11700.563265,E,1,05,1.0,133.1,M,-4.0,M,,*6A
$GNVTG,0.0,T,5.4,M,0.0,N,0.0,K,A*3C
$GNRMC,073216.00,A,3637.268843,N,11700.563265,E,0.0,0.0,121017,5.4,W,A*39
$GPGSA,A,2,02,05,15,20,29,,,,,,,,1.3,1.0,0.9*33
$GLGSA,A,2,68,79,85,,,,,,,,,,1.3,1.0,0.9*28
$BDGSA,A,2,03,,,,,,,,,,,,1.3,1.0,0.9*2B
$GLGSV,3,1,10,78,,,26,,,,23,70,09,262,14,77,11,033,21*62
$GLGSV,3,2,10,79,13,126,41,69,51,307,22,84,56,289,24,83,39,192,20*65
$GLGSV,3,3,10,85,14,331,39,68,41,030,30*6C
$GPGSV,4,1,13,02,21,142,36,05,45,067,28,15,67,241,43,18,10,284,21*72
$GPGSV,4,2,13,20,63,330,28,21,30,312,20,29,32,232,48,13,73,049,*7C
$GPGSV,4,3,13,24,11,178,,30,14,046,,41,,,41,42,,,35*70
$GPGSV,4,4,13,50,,,36*7B
$BDGSV,2,1,06,01,38,144,36,02,35,227,38,03,45,189,41,09,51,260,22*65
$BDGSV,2,2,06,13,,,41,11,16,182,*55
$GNGGA,073217.00,3637.268843,N,11700.563262,E,1,05,1.0,133.1,M,-4.0,M,,*6C
$GNVTG,0.0,T,5.4,M,0.0,N,0.0,K,A*3C
$GNRMC,073217.00,A,3637.268843,N,11700.563262,E,0.0,0.0,121017,5.4,W,A*3F
$GPGSA,A,2,02,05,15,20,29,,,,,,,,1.3,1.0,0.9*33
$GLGSA,A,2,68,79,85,,,,,,,,,,1.3,1.0,0.9*28
$BDGSA,A,2,03,,,,,,,,,,,,1.3,1.0,0.9*2B
$GLGSV,3,1,10,78,,,26,,,,23,70,09,262,14,77,11,033,21*62
$GLGSV,3,2,10,79,13,126,41,69,51,307,22,84,56,289,23,83,39,192,20*62
$GLGSV,3,3,10,85,14,331,39,68,41,030,29*64
$GPGSV,4,1,13,02,21,142,36,05,45,067,28,15,67,241,43,18,10,284,21*72
$GPGSV,4,2,13,20,63,330,28,21,30,312,21,29,32,232,48,13,73,049,*7D
$GPGSV,4,3,13,24,11,178,,30,14,046,,41,,,41,42,,,35*70
$GPGSV,4,4,13,50,,,36*7B
$BDGSV,2,1,06,01,38,144,36,02,35,227,38,03,45,189,41,09,51,260,24*63
$BDGSV,2,2,06,13,,,41,11,16,182,*55
$GNGGA,073218.00,3637.268842,N,11700.563261,E,1,05,1.0,133.1,M,-4.0,M,,*61
$GNVTG,0.0,T,5.4,M,0.0,N,0.0,K,A*3C
$GNRMC,073218.00,A,3637.268842,N,11700.563261,E,0.0,0.0,121017,5.4,W,A*32
$GPGSA,A,2,02,05,15,20,29,,,,,,,,1.3,1.0,0.9*33
$GLGSA,A,2,68,79,85,,,,,,,,,,1.3,1.0,0.9*28
$BDGSA,A,2,03,,,,,,,,,,,,1.3,1.0,0.9*2B
$GLGSV,3,1,10,78,,,25,,,,25,70,09,262,14,77,11,033,21*67
$GLGSV,3,2,10,79,13,126,41,69,51,307,16,84,56,289,23,83,39,192,20*65
$GLGSV,3,3,10,85,14,331,39,68,41,030,29*64
$GPGSV,4,1,13,02,21,142,36,05,45,067,28,15,67,241,43,18,10,284,21*72
$GPGSV,4,2,13,20,63,330,28,21,30,312,21,29,32,232,48,13,73,049,*7D
$GPGSV,4,3,13,24,11,178,,30,14,046,,41,,,41,42,,,36*73
$GPGSV,4,4,13,50,,,35*78
$BDGSV,2,1,06,01,38,144,36,02,35,227,38,03,45,189,41,09,51,260,24*63
$BDGSV,2,2,06,11,16,182,20,13,,,42*54
$GNGGA,073219.00,3637.268841,N,11700.563258,E,1,05,1.0,133.1,M,-4.0,M,,*69
$GNVTG,0.0,T,5.4,M,0.0,N,0.0,K,A*3C
$GNRMC,073219.00,A,3637.268841,N,11700.563258,E,0.0,0.0,121017,5.4,W,A*3A
$GPGSA,A,2,02,05,15,20,29,,,,,,,,1.3,1.0,0.9*33
$GLGSA,A,2,68,79,85,,,,,,,,,,1.3,1.0,0.9*28
$BDGSA,A,2,03,,,,,,,,,,,,1.3,1.0,0.9*2B
$GLGSV,3,1,10,78,,,25,,,,23,70,09,262,14,77,11,033,21*61
$GLGSV,3,2,10,79,13,126,41,69,51,307,16,84,56,289,22,83,39,192,20*64
$GLGSV,3,3,10,85,14,331,39,68,41,030,29*64
$GPGSV,4,1,13,02,21,142,36,05,45,067,29,15,67,241,43,18,10,284,21*73
$GPGSV,4,2,13,20,63,330,27,21,30,312,21,29,32,232,48,13,73,049,*72
$GPGSV,4,3,13,24,11,178,,30,14,046,,41,,,41,42,,,35*70
$GPGSV,4,4,13,50,,,36*7B
$BDGSV,2,1,06,01,38,144,36,02,35,227,38,03,45,189,41,09,51,260,24*63
$BDGSV,2,2,06,11,16,182,20,13,,,42*54
$GNGGA,073220.00,3637.268838,N,11700.563256,E,1,05,1.0,133.1,M,-4.0,M,,*63
$GNVTG,0.0,T,5.4,M,0.0,N,0.0,K,A*3C
$GNRMC,073220.00,A,3637.268838,N,11700.563256,E,0.0,0.0,121017,5.4,W,A*30
$GPGSA,A,2,02,05,15,20,29,,,,,,,,1.3,1.0,0.9*33
$GLGSA,A,2,68,79,85,,,,,,,,,,1.3,1.0,0.9*28
$BDGSA,A,2,03,,,,,,,,,,,,1.3,1.0,0.9*2B
$GLGSV,3,1,10,78,,,24,,,,20,70,09,262,14,77,11,033,21*63
$GLGSV,3,2,10,79,13,126,41,69,51,307,20,84,56,289,23,83,39,192,20*60
$GLGSV,3,3,10,85,14,331,39,68,41,030,28*65
$GPGSV,4,1,13,02,21,142,36,05,45,067,29,15,67,241,44,18,10,284,17*71
$GPGSV,4,2,13,20,63,330,28,21,30,312,25,29,32,232,48,13,73,049,*79
$GPGSV,4,3,13,24,11,178,,30,14,046,,41,,,41,42,,,36*73
$GPGSV,4,4,13,50,,,36*7B
$BDGSV,2,1,06,01,38,144,36,02,35,227,38,03,45,189,41,09,51,260,24*63
$BDGSV,2,2,06,11,16,182,20,13,,,42*54
$GNGGA,073221.00,3637.268836,N,11700.563254,E,1,06,0.9,133.1,M,-4.0,M,,*65
$GNVTG,0.0,T,5.4,M,0.0,N,0.0,K,A*3C
$GNRMC,073221.00,A,3637.268836,N,11700.563254,E,0.0,0.0,121017,5.4,W,A*3D
$GPGSA,A,2,02,05,15,20,21,29,,,,,,,1.3,0.9,0.8*39
$GLGSA,A,2,68,79,85,,,,,,,,,,1.3,0.9,0.8*21
$BDGSA,A,2,03,,,,,,,,,,,,1.3,0.9,0.8*22
$GLGSV,3,1,10,78,,,25,,,,22,70,09,262,14,77,11,033,21*60
$GLGSV,3,2,10,79,13,126,41,69,51,307,20,84,56,289,22,83,39,192,20*61
$GLGSV,3,3,10,85,14,331,39,68,41,030,27*6A
$GPGSV,4,1,13,02,21,142,36,05,45,067,29,13,73,049,28,15,67,241,44*70
$GPGSV,4,2,13,18,10,284,17,20,63,331,28,21,30,312,23,29,32,232,48*75
$GPGSV,4,3,13,24,11,178,,30,14,046,,41,,,41,42,,,36*73
$GPGSV,4,4,13,50,,,36*7B
$BDGSV,2,1,06,01,38,144,36,02,35,227,38,03,45,189,41,09,52,261,24*61
$BDGSV,2,2,06,11,15,182,20,13,,,42*57
$GNGGA,073222.00,3637.268834,N,11700.563253,E,1,07,0.9,133.1,M,-4.0,M,,*62
$GNVTG,0.0,T,5.4,M,0.0,N,0.0,K,A*3C
$GNRMC,073222.00,A,3637.268834,N,11700.563253,E,0.0,0.0,121017,5.4,W,A*3B
$GPGSA,A,2,02,05,13,15,20,21,29,,,,,,1.2,0.9,0.8*3A
$GLGSA,A,2,68,79,85,,,,,,,,,,1.2,0.9,0.8*20
$BDGSA,A,2,03,,,,,,,,,,,,1.2,0.9,0.8*23
$GLGSV,3,1,10,78,,,23,,,,24,70,09,262,14,77,11,033,21*60
$GLGSV,3,2,10,79,13,126,41,69,51,307,21,84,56,289,23,83,39,192,15*67
$GLGSV,3,3,10,85,14,331,39,68,41,030,26*6B
$GPGSV,4,1,13,02,21,142,35,05,45,067,30,15,67,241,44,18,10,284,17*7A
$GPGSV,4,2,13,20,63,331,28,21,30,312,25,29,32,232,48,13,73,049,*78
$GPGSV,4,3,13,24,11,178,,30,14,046,,41,,,41,42,,,35*70
$GPGSV,4,4,13,50,,,36*7B
$BDGSV,3,1,09,01,38,144,36,02,35,227,38,03,45,189,41,09,52,261,24*6F
$BDGSV,3,2,09,11,15,182,20,13,,,42,04,26,122,,06,73,306,*5F
$BDGSV,3,3,09,14,62,022,*50
$GNGGA,073223.00,3637.268833,N,11700.563251,E,1,07,0.9,133.1,M,-4.0,M,,*66
$GNVTG,0.0,T,5.4,M,0.0,N,0.0,K,A*3C
$GNRMC,073223.00,A,3637.268833,N,11700.563251,E,0.0,0.0,121017,5.4,W,A*3F
$GPGSA,A,2,02,05,13,15,20,21,29,,,,,,1.2,0.9,0.8*3A
$GLGSA,A,2,68,79,85,,,,,,,,,,1.2,0.9,0.8*20
$BDGSA,A,2,03,,,,,,,,,,,,1.2,0.9,0.8*23
$GLGSV,3,1,10,78,,,23,,,,27,70,09,262,14,77,11,033,21*63
$GLGSV,3,2,10,79,13,126,41,69,51,307,22,84,56,289,25,83,39,192,15*62
$GLGSV,3,3,10,85,14,331,39,68,41,030,26*6B
$GPGSV,4,1,13,02,21,142,35,05,45,067,30,15,67,241,44,18,10,284,17*7A
$GPGSV,4,2,13,20,63,331,28,21,30,312,24,29,32,232,48,13,73,049,*79
$GPGSV,4,3,13,24,11,178,,30,14,046,,41,,,41,42,,,35*70
$GPGSV,4,4,13,50,,,36*7B
$BDGSV,3,1,09,01,38,144,36,02,35,227,38,03,45,189,41,09,52,261,23*68
$BDGSV,3,2,09,11,15,182,20,13,,,42,04,26,122,,06,73,306,*5F
$BDGSV,3,3,09,14,62,022,*50
$GNGGA,073224.00,3637.268832,N,11700.563248,E,1,07,0.9,133.1,M,-4.0,M,,*68
$GNVTG,0.0,T,5.4,M,0.0,N,0.0,K,A*3C
$GNRMC,073224.00,A,3637.268832,N,11700.563248,E,0.0,0.0,121017,5.4,W,A*31
$GPGSA,A,2,02,05,13,15,20,21,29,,,,,,1.2,0.9,0.8*3A
$GLGSA,A,2,68,79,85,,,,,,,,,,1.2,0.9,0.8*20
$BDGSA,A,2,03,,,,,,,,,,,,1.2,0.9,0.8*23
$GLGSV,3,1,10,78,,,23,,,,26,70,09,262,14,77,11,033,21*62
$GLGSV,3,2,10,79,13,126,40,69,51,307,22,84,56,289,23,83,39,192,15*65
$GLGSV,3,3,10,85,14,331,38,68,41,030,26*6A
$GPGSV,4,1,13,02,21,142,35,05,45,067,31,13,73,049,28,15,67,241,44*7A
$GPGSV,4,2,13,18,10,284,17,20,63,331,26,21,30,312,24,29,32,232,48*7C
$GPGSV,4,3,13,24,11,178,,30,14,046,,41,,,41,42,,,36*73
$GPGSV,4,4,13,50,,,36*7B
$BDGSV,3,1,09,01,38,144,36,02,35,227,38,03,45,189,41,09,52,261,25*6E
$BDGSV,3,2,09,11,15,182,20,13,,,42,04,26,122,,06,73,306,*5F
$BDGSV,3,3,09,14,62,022,*50
$GNGGA,073225.00,3637.268829,N,11700.563248,E,1,07,0.9,133.1,M,-4.0,M,,*63
$GNVTG,0.0,T,5.4,M,0.0,N,0.0,K,A*3C
$GNRMC,073225.00,A,3637.268829,N,11700.563248,E,0.0,0.0,121017,5.4,W,A*3A
$GPGSA,A,2,02,05,13,15,20,21,29,,,,,,1.2,0.9,0.8*3A
$GLGSA,A,2,68,79,85,,,,,,,,,,1.2,0.9,0.8*20
$BDGSA,A,2,03,,,,,,,,,,,,1.2,0.9,0.8*23
$GLGSV,3,1,10,78,,,22,,,,27,70,09,262,14,77,11,033,21*62
$GLGSV,3,2,10,79,13,126,40,69,51,307,24,84,56,289,23,83,39,192,18*6E
$GLGSV,3,3,10,85,14,331,38,68,41,030,25*69
$GPGSV,4,1,13,02,21,142,36,05,45,067,32,13,73,049,29,15,67,241,44*7B
$GPGSV,4,2,13,18,10,284,17,20,63,331,28,21,30,312,23,29,32,232,48*75
$GPGSV,4,3,13,24,11,178,,30,14,046,,41,,,41,42,,,36*73
$GPGSV,4,4,13,50,,,36*7B
$BDGSV,3,1,09,01,38,144,36,02,35,227,38,03,45,189,41,09,52,261,24*6F
$BDGSV,3,2,09,11,15,182,20,13,,,42,04,26,122,,06,73,306,*5F
$BDGSV,3,3,09,14,62,022,*50
$GNGGA,073226.00,3637.268827,N,11700.563245,E,1,07,0.9,133.1,M,-4.0,M,,*63
$GNVTG,0.0,T,5.4,M,0.0,N,0.0,K,A*3C
$GNRMC,073226.00,A,3637.268827,N,11700.563245,E,0.0,0.0,121017,5.4,W,A*3A
$GPGSA,A,2,02,05,13,15,20,21,29,,,,,,1.2,0.9,0.8*3A
$GLGSA,A,2,68,79,85,,,,,,,,,,1.2,0.9,0.8*20
$BDGSA,A,2,03,,,,,,,,,,,,1.2,0.9,0.8*23
$GLGSV,3,1,10,78,,,20,,,,26,70,09,262,14,77,11,033,21*61
$GLGSV,3,2,10,79,13,126,40,69,51,307,24,84,56,289,24,83,39,192,20*62
$GLGSV,3,3,10,85,14,331,38,68,41,030,25*69
$GPGSV,4,1,13,02,21,142,36,05,45,067,32,13,73,049,29,15,67,241,44*7B
$GPGSV,4,2,13,18,10,284,17,20,63,331,27,21,30,312,24,29,32,232,48*7D
$GPGSV,4,3,13,24,11,178,,30,14,046,,41,,,41,42,,,36*73
$GPGSV,4,4,13,50,,,36*7B
$BDGSV,3,1,09,01,38,144,36,02,35,227,38,03,45,189,41,09,52,261,24*6F
$BDGSV,3,2,09,11,15,182,19,13,,,42,04,26,122,,06,73,306,*55
$BDGSV,3,3,09,14,62,022,*50
$GNGGA,073227.00,3637.268825,N,11700.563243,E,1,07,0.9,133.1,M,-4.0,M,,*66
$GNVTG,0.0,T,5.4,M,0.0,N,0.0,K,A*3C
$GNRMC,073227.00,A,3637.268825,N,11700.563243,E,0.0,0.0,121017,5.4,W,A*3F
$GPGSA,A,2,02,05,13,15,20,21,29,,,,,,1.2,0.9,0.8*3A
$GLGSA,A,2,68,79,85,,,,,,,,,,1.2,0.9,0.8*20
$BDGSA,A,2,03,,,,,,,,,,,,1.2,0.9,0.8*23
$GLGSV,3,1,10,78,,,20,,,,28,70,09,262,14,77,11,033,21*6F
$GLGSV,3,2,10,79,13,126,41,69,51,307,25,84,56,289,23,83,39,192,22*67
$GLGSV,3,3,10,85,14,331,38,68,41,030,26*6A
$GPGSV,4,1,13,02,21,142,36,05,45,067,33,13,73,049,31,15,67,241,44*73
$GPGSV,4,2,13,18,10,284,17,20,63,331,27,21,30,312,24,29,32,232,48*7D
$GPGSV,4,3,13,24,11,178,,30,14,046,,41,,,41,42,,,34*71
$GPGSV,4,4,13,50,,,37*7A
$BDGSV,3,1,09,01,38,144,36,02,35,227,38,03,45,189,41,09,52,261,24*6F
$BDGSV,3,2,09,11,15,182,19,13,,,42,04,26,122,,06,73,306,*55
$BDGSV,3,3,09,14,62,022,*50
$GNGGA,073228.00,3637.268823,N,11700.563240,E,1,07,0.9,133.1,M,-4.0,M,,*6C
$GNVTG,0.0,T,5.4,M,0.0,N,0.0,K,A*3C
$GNRMC,073228.00,A,3637.268823,N,11700.563240,E,0.0,0.0,121017,5.4,W,A*35
$GPGSA,A,2,02,05,13,15,20,21,29,,,,,,1.2,0.9,0.8*3A
$GLGSA,A,2,68,79,85,,,,,,,,,,1.2,0.9,0.8*20
$BDGSA,A,2,03,,,,,,,,,,,,1.2,0.9,0.8*23
$GLGSV,3,1,10,78,,,18,,,,29,70,09,262,14,77,11,033,21*65
$GLGSV,3,2,10,79,13,126,40,69,51,307,25,84,56,289,24,83,39,192,22*61
$GLGSV,3,3,10,85,14,331,37,68,41,030,25*66
$GPGSV,4,1,13,02,21,142,36,05,45,067,33,13,73,049,31,15,67,241,44*73
$GPGSV,4,2,13,18,10,284,17,20,63,331,27,21,30,312,25,29,32,232,48*7C
$GPGSV,4,3,13,24,11,178,,30,14,046,,41,,,41,42,,,35*70
$GPGSV,4,4,13,50,,,36*7B
$BDGSV,3,1,09,01,38,144,36,02,35,227,38,03,45,189,41,09,52,261,23*68
$BDGSV,3,2,09,11,15,182,19,13,,,42,04,26,122,,06,73,306,*55
$BDGSV,3,3,09,14,62,022,*50
$GNGGA,073229.00,3637.268823,N,11700.563234,E,1,07,0.9,133.1,M,-4.0,M,,*6E
$GNVTG,0.0,T,5.4,M,0.0,N,0.0,K,A*3C
$GNRMC,073229.00,A,3637.268823,N,11700.563234,E,0.0,0.0,121017,5.4,W,A*37
$GPGSA,A,2,02,05,13,15,20,21,29,,,,,,1.2,0.9,0.8*3A
$GLGSA,A,2,68,79,85,,,,,,,,,,1.2,0.9,0.8*20
$BDGSA,A,2,03,,,,,,,,,,,,1.2,0.9,0.8*23
$GLGSV,3,1,10,78,,,18,,,,28,70,09,262,14,77,11,033,21*64
$GLGSV,3,2,10,79,13,126,41,69,51,307,25,84,56,289,23,83,39,192,21*64
$GLGSV,3,3,10,85,14,331,37,68,41,030,26*65
$GPGSV,4,1,13,02,21,142,35,05,45,067,33,13,73,049,31,15,67,241,44*70
$GPGSV,4,2,13,18,10,284,17,20,63,331,27,21,30,312,21,29,32,232,48*78
$GPGSV,4,3,13,24,11,178,,30,14,046,,41,,,41,42,,,35*70
$GPGSV,4,4,13,50,,,36*7B
$BDGSV,3,1,09,01,38,144,36,02,35,227,38,03,45,189,41,09,52,261,26*6D
$BDGSV,3,2,09,11,15,182,19,13,,,42,04,26,122,,06,73,306,*55
$BDGSV,3,3,09,14,62,022,*50
$GNGGA,073230.00,3637.268823,N,11700.563229,E,1,07,0.9,133.1,M,-4.0,M,,*6A
$GNVTG,0.0,T,5.4,M,0.0,N,0.0,K,A*3C
$GNRMC,073230.00,A,3637.268823,N,11700.563229,E,0.0,0.0,121017,5.4,W,A*33
$GPGSA,A,2,02,05,13,15,20,21,29,,,,,,1.2,0.9,0.8*3A
$GLGSA,A,2,68,79,85,,,,,,,,,,1.2,0.9,0.8*20
$BDGSA,A,2,03,,,,,,,,,,,,1.2,0.9,0.8*23
$GLGSV,3,1,10,78,,,18,,,,28,70,09,262,14,77,11,033,21*64
$GLGSV,3,2,10,79,13,126,41,69,52,309,26,84,56,289,25,83,39,192,21*6C
$GLGSV,3,3,10,85,14,331,37,68,41,030,26*65
$GPGSV,4,1,13,02,21,142,35,05,45,067,32,13,73,049,32,15,67,241,44*72
$GPGSV,4,2,13,18,10,284,16,20,63,331,28,21,30,312,21,29,32,232,48*76
$GPGSV,4,3,13,24,11,178,,30,14,046,,41,,,41,42,,,35*70
$GPGSV,4,4,13,50,,,35*78
$BDGSV,3,1,09,01,38,144,36,02,35,227,38,03,45,189,41,09,52,261,23*68
$BDGSV,3,2,09,11,15,182,19,13,,,42,04,26,122,,06,73,306,*55
$BDGSV,3,3,09,14,62,022,*50
$GNGGA,073231.00,3637.268821,N,11700.563227,E,1,07,0.9,133.1,M,-4.0,M,,*67
$GNVTG,0.0,T,5.4,M,0.0,N,0.0,K,A*3C
$GNRMC,073231.00,A,3637.268821,N,11700.563227,E,0.0,0.0,121017,5.4,W,A*3E
$GPGSA,A,2,02,05,13,15,20,21,29,,,,,,1.2,0.9,0.8*3A
$GLGSA,A,2,68,79,85,,,,,,,,,,1.2,0.9,0.8*20
$BDGSA,A,2,03,,,,,,,,,,,,1.2,0.9,0.8*23
$GLGSV,3,1,10,78,,,18,,,,26,70,09,262,14,77,11,033,21*6A
$GLGSV,3,2,10,79,13,126,41,69,52,309,26,84,56,289,23,83,39,192,22*69
$GLGSV,3,3,10,85,14,331,37,68,41,030,27*64
$GPGSV,4,1,13,02,21,142,35,05,45,067,32,13,73,049,32,15,67,241,44*72
$GPGSV,4,2,13,18,10,284,16,20,63,331,27,21,30,312,21,29,32,232,48*79
$GPGSV,4,3,13,24,11,178,,30,14,046,,41,,,41,42,,,35*70
$GPGSV,4,4,13,50,,,36*7B
$BDGSV,3,1,09,01,38,144,36,02,35,227,38,03,45,189,41,09,52,261,23*68
$BDGSV,3,2,09,11,15,182,19,13,,,42,04,26,122,,06,73,306,*55
$BDGSV,3,3,09,14,62,022,*50
$GNGGA,073232.00,3637.268819,N,11700.563222,E,1,07,0.9,133.1,M,-4.0,M,,*6A
$GNVTG,0.0,T,5.4,M,0.0,N,0.0,K,A*3C
$GNRMC,073232.00,A,3637.268819,N,11700.563222,E,0.0,0.0,121017,5.4,W,A*33
$GPGSA,A,2,02,05,13,15,20,21,29,,,,,,1.2,0.9,0.8*3A
$GLGSA,A,2,68,79,85,,,,,,,,,,1.2,0.9,0.8*20
$BDGSA,A,2,03,,,,,,,,,,,,1.2,0.9,0.8*23
$GLGSV,3,1,10,78,,,18,,,,26,70,09,262,14,79,13,126,41*65
$GLGSV,3,2,10,69,52,309,25,84,56,289,24,83,39,192,23,85,14,331,37*6D
$GLGSV,3,3,10,68,41,030,27,,11,033,*69
$GPGSV,4,1,13,02,21,142,35,05,45,067,32,13,73,049,32,15,67,241,44*72
$GPGSV,4,2,13,18,10,284,20,20,63,331,28,21,30,312,22,29,32,232,48*70
$GPGSV,4,3,13,24,11,178,,30,14,046,,41,,,42,42,,,35*73
$GPGSV,4,4,13,50,,,35*78
$BDGSV,3,1,09,01,38,144,36,02,35,227,38,03,45,189,41,09,52,261,21*6A
$BDGSV,3,2,09,11,15,182,19,13,,,42,04,26,122,,06,73,306,*55
$BDGSV,3,3,09,14,62,022,*50
$GNGGA,073233.00,3637.268821,N,11700.563214,E,1,07,0.9,133.1,M,-4.0,M,,*65
$GNVTG,0.0,T,5.4,M,0.0,N,0.0,K,A*3C
$GNRMC,073233.00,A,3637.268821,N,11700.563214,E,0.0,0.0,121017,5.4,W,A*3C
$GPGSA,A,2,02,05,13,15,20,21,29,,,,,,1.2,0.9,0.8*3A
$GLGSA,A,2,68,79,85,,,,,,,,,,1.2,0.9,0.8*20
$BDGSA,A,2,03,,,,,,,,,,,,1.2,0.9,0.8*23
$GLGSV,3,1,10,78,,,18,,,,26,70,09,262,14,79,13,126,40*64
$GLGSV,3,2,10,69,52,309,26,84,56,289,22,83,39,192,22,85,14,331,37*69
$GLGSV,3,3,10,68,41,030,27,77,11,033,*69
$GPGSV,4,1,13,02,21,142,34,05,45,067,32,13,73,049,32,15,67,241,44*73
$GPGSV,4,2,13,18,10,284,20,20,63,331,27,21,30,312,21,29,32,232,48*7C
$GPGSV,4,3,13,24,11,178,,30,14,046,,41,,,42,42,,,34*72
$GPGSV,4,4,13,50,,,36*7B
$BDGSV,3,1,09,01,38,144,36,02,35,227,38,03,45,189,41,09,52,261,24*6F
$BDGSV,3,2,09,11,15,182,19,13,,,42,04,26,122,,06,73,306,*55
$BDGSV,3,3,09,14,62,022,*50
$GNGGA,073234.00,3637.268820,N,11700.563209,E,1,07,0.9,133.1,M,-4.0,M,,*6F
$GNVTG,0.0,T,5.4,M,0.0,N,0.0,K,A*3C
$GNRMC,073234.00,A,3637.268820,N,11700.563209,E,0.0,0.0,121017,5.4,W,A*36
$GPGSA,A,2,02,05,13,15,20,21,29,,,,,,1.2,0.9,0.8*3A
$GLGSA,A,2,68,79,85,,,,,,,,,,1.2,0.9,0.8*20
$BDGSA,A,2,03,,,,,,,,,,,,1.2,0.9,0.8*23
$GLGSV,3,1,10,78,,,18,,,,26,79,13,126,40,69,52,309,25*6C
$GLGSV,3,2,10,84,56,289,23,83,39,192,24,85,14,331,37,68,41,030,28*6A
$GLGSV,3,3,10,,09,262,,77,11,033,*6B
$GPGSV,4,1,13,02,21,142,34,05,45,067,32,13,73,049,33,15,67,241,44*72
$GPGSV,4,2,13,18,10,284,20,20,63,331,28,21,30,312,21,29,32,232,47*7C
$GPGSV,4,3,13,24,11,178,,30,14,046,,41,,,41,42,,,35*70
$GPGSV,4,4,13,50,,,36*7B
$BDGSV,3,1,09,01,38,144,36,02,35,227,38,03,45,189,41,09,52,261,24*6F
$BDGSV,3,2,09,11,15,182,19,13,,,42,04,26,122,,06,73,306,*55
$BDGSV,3,3,09,14,62,022,*50
$GNGGA,073235.00,3637.268819,N,11700.563202,E,1,06,0.9,133.1,M,-4.0,M,,*6E
$GNVTG,0.0,T,5.4,M,0.0,N,0.0,K,A*3C
$GNRMC,073235.00,A,3637.268819,N,11700.563202,E,0.0,0.0,121017,5.4,W,A*36
$GPGSA,A,2,02,05,13,15,20,29,,,,,,,1.2,0.9,0.8*39
$GLGSA,A,2,68,79,83,85,,,,,,,,,1.2,0.9,0.8*2B
$BDGSA,A,2,03,,,,,,,,,,,,1.2,0.9,0.8*23
$GLGSV,3,1,10,78,,,18,,,,26,79,13,126,40,69,52,309,24*6D
$GLGSV,3,2,10,84,56,289,22,83,39,192,26,85,14,331,37,68,41,030,29*68
$GLGSV,3,3,10,70,09,262,,77,11,033,*6C
$GPGSV,4,1,13,02,21,142,34,05,45,067,33,13,73,049,34,15,67,241,44*74
$GPGSV,4,2,13,18,10,284,20,20,63,331,26,21,30,312,24,29,32,232,47*77
$GPGSV,4,3,13,24,11,178,,30,14,046,,41,,,42,42,,,35*73
$GPGSV,4,4,13,50,,,36*7B
$BDGSV,3,1,09,01,38,144,36,02,35,227,38,03,45,189,41,09,52,261,22*69
$BDGSV,3,2,09,11,15,182,19,13,,,42,04,26,122,,06,73,306,*55
$BDGSV,3,3,09,14,62,022,*50
$GNGGA,073236.00,3637.268812,N,11700.563192,E,1,07,0.8,133.0,M,-4.0,M,,*6D
$GNVTG,0.0,T,5.4,M,0.0,N,0.0,K,A*3C
$GNRMC,073236.00,A,3637.268812,N,11700.563192,E,0.0,0.0,121017,5.4,W,A*34
$GPGSA,A,2,02,05,13,15,20,21,29,,,,,,1.2,0.8,0.8*3B
$GLGSA,A,2,68,79,83,85,,,,,,,,,1.2,0.8,0.8*2A
$BDGSA,A,2,03,,,,,,,,,,,,1.2,0.8,0.8*22
$GLGSV,3,1,10,78,,,16,,,,27,79,13,126,40,69,52,309,24*62
$GLGSV,3,2,10,84,56,289,22,83,39,192,27,85,14,331,37,68,41,030,29*69
$GLGSV,3,3,10,70,09,262,,77,11,033,*6C
$GPGSV,4,1,13,02,21,142,34,05,45,067,33,13,73,049,34,15,67,241,44*74
$GPGSV,4,2,13,18,10,284,20,20,63,331,24,21,30,312,24,29,32,232,47*75
$GPGSV,4,3,13,24,11,178,,30,14,046,,41,,,42,42,,,36*70
$GPGSV,4,4,13,50,,,35*78
$BDGSV,3,1,09,01,38,144,36,02,35,227,38,03,45,189,41,09,52,261,22*69
$BDGSV,3,2,09,11,15,182,19,13,,,42,04,26,122,,06,73,306,*55
$BDGSV,3,3,09,14,62,022,*50
$GNGGA,073237.00,3637.268809,N,11700.563181,E,1,07,0.8,133.0,M,-4.0,M,,*64
$GNVTG,0.0,T,5.4,M,0.0,N,0.0,K,A*3C
$GNRMC,073237.00,A,3637.268809,N,11700.563181,E,0.0,0.0,121017,5.4,W,A*3D
$GPGSA,A,2,02,05,13,15,20,21,29,,,,,,1.2,0.8,0.8*3B
$GLGSA,A,2,68,79,83,85,,,,,,,,,1.2,0.8,0.8*2A
$BDGSA,A,2,03,,,,,,,,,,,,1.2,0.8,0.8*22
$GLGSV,3,1,10,78,,,22,,,,25,79,13,126,40,69,52,309,24*67
$GLGSV,3,2,10,84,56,286,21,83,39,192,26,85,14,331,37,68,41,030,29*64
$GLGSV,3,3,10,70,09,262,,77,11,033,*6C
$GPGSV,4,1,13,02,21,142,34,05,45,067,33,13,73,049,34,15,67,241,43*73
$GPGSV,4,2,13,18,10,284,17,20,63,331,27,21,30,312,22,29,32,232,47*74
$GPGSV,4,3,13,30,14,046,21,24,11,178,,41,,,42,42,,,36*73
$GPGSV,4,4,13,50,,,36*7B
$BDGSV,3,1,09,01,38,144,36,02,35,227,38,03,45,189,41,09,52,261,22*69
$BDGSV,3,2,09,11,15,182,19,13,,,42,04,26,122,,06,73,306,*55
$BDGSV,3,3,09,14,62,022,*50
$GNGGA,073238.00,3637.268802,N,11700.563172,E,1,07,0.8,133.0,M,-4.0,M,,*6C
$GNVTG,0.0,T,5.4,M,0.0,N,0.0,K,A*3C
$GNRMC,073238.00,A,3637.268802,N,11700.563172,E,0.0,0.0,121017,5.4,W,A*35
$GPGSA,A,2,02,05,13,15,20,21,29,,,,,,1.2,0.8,0.8*3B
$GLGSA,A,2,68,79,83,85,,,,,,,,,1.2,0.8,0.8*2A
$BDGSA,A,2,03,,,,,,,,,,,,1.2,0.8,0.8*22
$GLGSV,3,1,10,78,,,24,,,,25,79,13,126,40,69,52,309,24*61
$GLGSV,3,2,10,84,56,286,21,83,39,192,28,85,14,331,37,68,41,032,29*68
$GLGSV,3,3,10,70,09,262,,77,11,033,*6C
$GPGSV,4,1,13,02,21,142,33,05,45,067,32,13,73,049,35,15,67,241,43*74
$GPGSV,4,2,13,18,10,284,17,20,63,331,25,21,30,312,22,29,32,232,47*76
$GPGSV,4,3,13,30,14,046,22,24,11,178,,41,,,42,42,,,35*73
$GPGSV,4,4,13,50,,,36*7B
$BDGSV,3,1,09,01,38,144,36,02,35,227,38,03,45,189,41,09,52,261,24*6F
$BDGSV,3,2,09,11,15,182,19,13,,,42,04,26,122,,06,73,306,*55
$BDGSV,3,3,09,14,62,022,*50
$GNGGA,073239.00,3637.268795,N,11700.563163,E,1,07,0.8,133.0,M,-4.0,M,,*6C
$GNVTG,0.0,T,5.4,M,0.0,N,0.0,K,A*3C
$GNRMC,073239.00,A,3637.268795,N,11700.563163,E,0.0,0.0,121017,5.4,W,A*35
$GPGSA,A,2,02,05,13,15,20,21,29,,,,,,1.2,0.8,0.8*3B
$GLGSA,A,2,68,79,83,85,,,,,,,,,1.2,0.8,0.8*2A
$BDGSA,A,2,03,,,,,,,,,,,,1.2,0.8,0.8*22
$GLGSV,3,1,10,78,,,22,,,,25,79,13,126,40,69,52,309,24*67
$GLGSV,3,2,10,84,56,286,20,83,39,192,29,85,14,331,37,68,41,032,29*68
$GLGSV,3,3,10,70,09,262,,77,11,033,*6C
$GPGSV,4,1,13,02,21,142,33,05,45,067,31,13,73,049,34,15,67,241,43*76
$GPGSV,4,2,13,18,10,284,17,20,63,331,24,21,30,312,23,29,32,232,47*76
$GPGSV,4,3,13,30,14,046,23,24,11,178,,41,,,42,42,,,35*72
$GPGSV,4,4,13,50,,,37*7A
$BDGSV,3,1,09,01,38,144,37,02,35,227,38,03,45,189,41,09,52,261,24*6E
$BDGSV,3,2,09,11,15,182,19,13,,,42,04,26,122,,06,73,306,*55
$BDGSV,3,3,09,14,62,022,*50
$GNGGA,073240.00,3637.268790,N,11700.563154,E,1,07,0.8,133.0,M,-4.0,M,,*63
$GNVTG,0.0,T,5.4,M,0.0,N,0.0,K,A*3C
$GNRMC,073240.00,A,3637.268790,N,11700.563154,E,0.0,0.0,121017,5.4,W,A*3A
$GPGSA,A,2,02,05,13,15,20,21,29,,,,,,1.2,0.8,0.8*3B
$GLGSA,A,2,68,79,83,85,,,,,,,,,1.2,0.8,0.8*2A
$BDGSA,A,2,03,,,,,,,,,,,,1.2,0.8,0.8*22
$GLGSV,3,1,10,78,,,21,,,,24,79,13,126,40,69,52,309,23*62
$GLGSV,3,2,10,84,56,286,20,83,39,192,28,85,14,331,37,68,41,032,29*69
$GLGSV,3,3,10,70,09,262,,77,11,033,*6C
$GPGSV,4,1,13,02,21,142,33,05,45,067,31,13,73,049,35,15,67,241,43*77
$GPGSV,4,2,13,18,10,284,17,20,63,331,24,21,30,312,21,29,32,232,47*74
$GPGSV,4,3,13,30,14,046,26,24,11,178,,41,,,42,42,,,36*74
$GPGSV,4,4,13,50,,,36*7B
$BDGSV,3,1,09,01,38,144,36,02,35,227,38,03,45,189,41,09,52,261,23*68
$BDGSV,3,2,09,11,15,182,19,13,,,43,04,26,122,,06,73,306,*54
$BDGSV,3,3,09,14,62,022,*50
$GNGGA,073241.00,3637.268782,N,11700.563145,E,1,07,0.8,132.9,M,-4.0,M,,*69
$GNVTG,0.0,T,5.4,M,0.0,N,0.0,K,A*3C
$GNRMC,073241.00,A,3637.268782,N,11700.563145,E,0.0,0.0,121017,5.4,W,A*38
$GPGSA,A,2,02,05,13,15,20,21,29,,,,,,1.2,0.8,0.8*3B
$GLGSA,A,2,68,79,83,85,,,,,,,,,1.2,0.8,0.8*2A
$BDGSA,A,2,03,,,,,,,,,,,,1.2,0.8,0.8*22
$GLGSV,3,1,10,78,,,21,,,,21,79,13,126,39,69,52,309,24*6E
$GLGSV,3,2,10,84,56,286,20,83,39,192,28,85,14,331,37,68,41,032,28*68
$GLGSV,3,3,10,70,09,262,,77,11,033,*6C
$GPGSV,4,1,13,02,21,142,33,05,45,067,29,13,73,049,35,15,67,241,43*7E
$GPGSV,4,2,13,18,10,284,18,20,63,331,25,21,30,312,23,29,32,232,47*78
$GPGSV,4,3,13,30,14,046,27,24,11,178,,41,,,42,42,,,35*76
$GPGSV,4,4,13,50,,,36*7B
$BDGSV,3,1,09,01,38,144,36,02,35,227,38,03,45,189,41,09,52,261,23*68
$BDGSV,3,2,09,11,15,182,19,13,,,42,04,26,122,,06,73,306,*55
$BDGSV,3,3,09,14,62,022,*50
$GNGGA,073242.00,3637.268774,N,11700.563137,E,1,07,0.8,132.9,M,-4.0,M,,*66
$GNVTG,0.0,T,5.4,M,0.0,N,0.0,K,A*3C
$GNRMC,073242.00,A,3637.268774,N,11700.563137,E,0.0,0.0,121017,5.4,W,A*37
$GPGSA,A,2,02,05,13,15,20,21,29,,,,,,1.2,0.8,0.8*3B
$GLGSA,A,2,68,79,83,85,,,,,,,,,1.2,0.8,0.8*2A
$BDGSA,A,2,03,,,,,,,,,,,,1.2,0.8,0.8*22
$GLGSV,3,1,10,78,,,21,,,,21,79,13,126,40,69,52,309,24*60
$GLGSV,3,2,10,84,56,286,19,83,39,192,27,85,14,331,37,68,41,032,29*6C
$GLGSV,3,3,10,70,09,262,,77,11,033,*6C
$GPGSV,4,1,13,02,20,143,33,05,45,067,28,13,73,049,35,15,68,243,43*72
$GPGSV,4,2,13,18,11,284,18,20,63,333,27,21,30,312,23,24,11,178,16*7C
$GPGSV,4,3,13,29,31,232,47,30,14,046,28,41,,,42,42,,,35*78
$GPGSV,4,4,13,50,,,36*7B
$BDGSV,3,1,09,01,38,144,36,02,35,227,38,03,45,189,41,09,52,261,23*68
$BDGSV,3,2,09,11,15,182,19,13,,,42,04,26,122,,06,73,306,*55
$BDGSV,3,3,09,14,62,022,*50
$GNGGA,073243.00,3637.268769,N,11700.563128,E,1,06,0.9,132.9,M,-4.0,M,,*65
$GNVTG,0.0,T,5.4,M,0.0,N,0.0,K,A*3C
$GNRMC,073243.00,A,3637.268769,N,11700.563128,E,0.0,0.0,121017,5.4,W,A*34
$GPGSA,A,2,02,05,13,15,20,29,,,,,,,1.2,0.9,0.8*39
$GLGSA,A,2,68,79,83,85,,,,,,,,,1.2,0.9,0.8*2B
$BDGSA,A,2,03,,,,,,,,,,,,1.2,0.9,0.8*23
$GLGSV,3,1,10,78,,,20,,,,21,79,13,126,39,69,52,309,24*6F
$GLGSV,3,2,10,84,56,286,19,83,39,192,28,85,14,331,37,68,41,032,30*6B
$GLGSV,3,3,10,70,09,262,,77,11,033,*6C
$GPGSV,4,1,13,02,20,143,33,05,45,067,26,13,73,049,35,15,68,243,43*7C
$GPGSV,4,2,13,18,11,284,18,20,63,333,25,21,30,312,22,24,11,178,17*7E
$GPGSV,4,3,13,29,31,232,47,30,14,046,29,41,,,42,42,,,35*79
$GPGSV,4,4,13,50,,,36*7B
$BDGSV,3,1,09,01,38,144,37,02,35,227,38,03,45,189,41,09,52,261,21*6B
$BDGSV,3,2,09,11,15,182,19,13,,,42,04,26,122,,06,73,306,*55
$BDGSV,3,3,09,14,62,022,*50
$GNGGA,073244.00,3637.268761,N,11700.563121,E,1,06,0.9,132.9,M,-4.0,M,,*63
$GNVTG,0.0,T,5.4,M,0.0,N,0.0,K,A*3C
$GNRMC,073244.00,A,3637.268761,N,11700.563121,E,0.0,0.0,121017,5.4,W,A*32
$GPGSA,A,2,02,05,13,15,20,29,,,,,,,1.2,0.9,0.8*39
$GLGSA,A,2,68,79,83,85,,,,,,,,,1.2,0.9,0.8*2B
$BDGSA,A,2,03,,,,,,,,,,,,1.2,0.9,0.8*23
$GLGSV,3,1,10,78,,,22,,,,21,79,13,126,39,69,52,309,23*6A
$GLGSV,3,2,10,84,56,286,19,83,39,192,29,85,14,331,37,68,41,032,30*6A
$GLGSV,3,3,10,70,09,262,,77,11,033,*6C
$GPGSV,4,1,13,02,20,143,33,05,45,067,26,13,73,049,35,15,68,243,43*7C
$GPGSV,4,2,13,18,11,284,18,20,63,333,24,21,30,312,23,24,11,178,16*7F
$GPGSV,4,3,13,29,31,232,47,30,14,046,28,41,,,42,42,,,36*7B
$GPGSV,4,4,13,50,,,37*7A
$BDGSV,3,1,09,01,38,144,36,02,35,227,38,03,45,189,41,09,52,261,21*6A
$BDGSV,3,2,09,11,15,182,19,13,,,42,04,26,122,,06,73,306,*55
$BDGSV,3,3,09,14,62,022,*50
$GNGGA,073245.00,3637.268753,N,11700.563112,E,1,06,0.9,132.9,M,-4.0,M,,*63
$GNVTG,0.0,T,5.4,M,0.0,N,0.0,K,A*3C
$GNRMC,073245.00,A,3637.268753,N,11700.563112,E,0.0,0.0,121017,5.4,W,A*32
$GPGSA,A,2,02,05,13,15,20,29,,,,,,,1.2,0.9,0.8*39
$GLGSA,A,2,68,79,83,85,,,,,,,,,1.2,0.9,0.8*2B
$BDGSA,A,2,03,,,,,,,,,,,,1.2,0.9,0.8*23
$GLGSV,3,1,10,78,,,21,,,,21,79,13,126,39,69,52,309,24*6E
$GLGSV,3,2,10,84,56,286,18,83,39,192,28,85,14,331,37,68,41,032,30*6A
$GLGSV,3,3,10,70,09,262,,77,11,033,*6C
$GPGSV,4,1,13,02,20,143,32,05,45,067,26,13,73,049,35,15,68,243,42*7C
$GPGSV,4,2,13,18,11,284,18,20,63,333,25,21,30,312,22,24,11,178,16*7F
$GPGSV,4,3,13,29,31,232,47,30,14,046,28,41,,,42,42,,,35*78
$GPGSV,4,4,13,50,,,36*7B
$BDGSV,3,1,09,01,38,144,36,02,35,227,38,03,45,189,41,09,52,261,21*6A
$BDGSV,3,2,09,11,15,182,19,13,,,42,04,26,122,,06,73,306,*55
$BDGSV,3,3,09,14,62,022,*50
$GNGGA,073246.00,3637.268744,N,11700.563104,E,1,06,0.9,132.8,M,-4.0,M,,*60
$GNVTG,0.0,T,5.4,M,0.0,N,0.0,K,A*3C
$GNRMC,073246.00,A,3637.268744,N,11700.563104,E,0.0,0.0,121017,5.4,W,A*30
$GPGSA,A,2,02,05,13,15,20,29,,,,,,,1.2,0.9,0.8*39
$GLGSA,A,2,68,79,83,85,,,,,,,,,1.2,0.9,0.8*2B
$BDGSA,A,2,03,,,,,,,,,,,,1.2,0.9,0.8*23
$GLGSV,3,1,10,78,,,22,,,,21,70,09,262,16,79,13,126,39*66
$GLGSV,3,2,10,69,52,309,22,84,56,286,18,83,39,192,29,85,14,331,37*60
$GLGSV,3,3,10,68,41,032,30,77,11,033,*6D
$GPGSV,4,1,13,02,20,143,31,05,45,067,26,13,73,049,35,15,68,243,42*7F
$GPGSV,4,2,13,18,11,284,18,20,63,333,25,21,30,312,24,24,11,178,17*78
$GPGSV,4,3,13,29,31,232,47,30,14,046,28,41,,,42,42,,,36*7B
$GPGSV,4,4,13,50,,,36*7B
$BDGSV,3,1,09,01,38,144,36,02,35,227,38,03,45,189,41,09,52,261,21*6A
$BDGSV,3,2,09,11,15,182,19,13,,,43,04,26,122,,06,73,306,*54
$BDGSV,3,3,09,14,62,022,*50
$GNGGA,073247.00,3637.268734,N,11700.563096,E,1,07,0.8,132.8,M,-4.0,M,,*6C
$GNVTG,0.0,T,5.4,M,0.0,N,0.0,K,A*3C
$GNRMC,073247.00,A,3637.268734,N,11700.563096,E,0.0,0.0,121017,5.4,W,A*3C
$GPGSA,A,2,02,05,13,15,20,21,29,,,,,,1.2,0.8,0.8*3B
$GLGSA,A,2,68,79,83,85,,,,,,,,,1.2,0.8,0.8*2A
$BDGSA,A,2,03,,,,,,,,,,,,1.2,0.8,0.8*22
$GLGSV,3,1,10,78,,,23,,,,21,70,09,262,16,79,13,126,39*67
$GLGSV,3,2,10,69,52,309,22,84,56,286,18,83,39,192,28,85,14,331,37*61
$GLGSV,3,3,10,68,41,032,30,77,11,033,*6D
$GPGSV,4,1,13,02,20,143,31,05,45,067,27,13,73,049,36,15,68,243,42*7D
$GPGSV,4,2,13,18,11,284,18,20,63,333,26,21,30,312,25,24,11,178,16*7B
$GPGSV,4,3,13,29,31,232,47,30,14,046,28,41,,,42,42,,,35*78
$GPGSV,4,4,13,50,,,37*7A
$BDGSV,3,1,09,01,38,144,36,02,35,227,38,03,45,189,41,09,52,261,21*6A
$BDGSV,3,2,09,11,15,182,19,13,,,43,14,62,022,25,04,26,122,*55
$BDGSV,3,3,09,06,73,306,*56
$GNGGA,073248.00,3637.268724,N,11700.563088,E,1,07,0.8,132.8,M,-4.0,M,,*6D
$GNVTG,0.0,T,5.4,M,0.0,N,0.0,K,A*3C
$GNRMC,073248.00,A,3637.268724,N,11700.563088,E,0.0,0.0,121017,5.4,W,A*3D
$GPGSA,A,2,02,05,13,15,20,21,29,,,,,,1.2,0.8,0.8*3B
$GLGSA,A,2,68,79,83,85,,,,,,,,,1.2,0.8,0.8*2A
$BDGSA,A,2,03,,,,,,,,,,,,1.2,0.8,0.8*22
$GLGSV,3,1,10,78,,,23,,,,21,70,09,262,16,79,13,126,39*67
$GLGSV,3,2,10,69,52,309,20,84,56,286,19,83,39,192,28,85,14,331,37*62
$GLGSV,3,3,10,68,41,032,30,77,11,033,*6D
$GPGSV,4,1,13,02,20,143,30,05,45,067,28,13,73,049,36,15,68,243,42*73
$GPGSV,4,2,13,18,11,284,18,20,63,333,25,21,30,312,25,24,11,178,16*78
$GPGSV,4,3,13,29,31,232,47,30,14,046,26,41,,,42,42,,,35*76
$GPGSV,4,4,13,50,,,36*7B
$BDGSV,3,1,09,01,38,144,36,02,35,227,38,03,45,189,41,09,52,261,21*6A
$BDGSV,3,2,09,13,,,43,14,62,022,27,04,26,122,,06,73,306,*57
$BDGSV,3,3,09,11,15,182,*5E
$GNGGA,073249.00,3637.268712,N,11700.563081,E,1,08,0.8,132.8,M,-4.0,M,,*6F
$GNVTG,0.0,T,5.4,M,0.0,N,0.0,K,A*3C
$GNRMC,073249.00,A,3637.268712,N,11700.563081,E,0.0,0.0,121017,5.4,W,A*30
$GPGSA,A,2,02,05,13,15,20,21,29,30,,,,,1.1,0.8,0.8*3B
$GLGSA,A,2,68,79,83,85,,,,,,,,,1.1,0.8,0.8*29
$BDGSA,A,2,03,,,,,,,,,,,,1.1,0.8,0.8*21
$GLGSV,3,1,10,78,,,19,,,,21,70,09,262,16,79,13,126,39*6E
$GLGSV,3,2,10,69,52,309,20,84,56,286,19,83,39,192,28,85,14,331,36*63
$GLGSV,3,3,10,68,41,032,30,77,11,033,*6D
$GPGSV,4,1,13,02,20,143,30,05,45,067,27,13,73,049,36,15,68,243,42*7C
$GPGSV,4,2,13,18,11,284,18,20,63,333,26,21,30,312,23,24,11,178,16*7D
$GPGSV,4,3,13,29,31,232,47,30,14,046,22,41,,,42,42,,,35*72
$GPGSV,4,4,13,50,,,36*7B
$BDGSV,3,1,09,01,38,144,36,02,35,227,38,03,45,189,41,09,52,261,21*6A
$BDGSV,3,2,09,13,,,42,14,62,022,26,04,26,122,,06,73,306,*57
$BDGSV,3,3,09,11,15,182,*5E
$GNGGA,073250.00,3637.268698,N,11700.563073,E,1,08,0.8,132.8,M,-4.0,M,,*69
$GNVTG,0.0,T,5.4,M,0.0,N,0.0,K,A*3C
$GNRMC,073250.00,A,3637.268698,N,11700.563073,E,0.0,0.0,121017,5.4,W,A*36
$GPGSA,A,2,02,05,13,15,20,21,29,30,,,,,1.1,0.8,0.8*3B
$GLGSA,A,2,68,79,83,85,,,,,,,,,1.1,0.8,0.8*29
$BDGSA,A,2,03,,,,,,,,,,,,1.1,0.8,0.8*21
$GLGSV,3,1,10,78,,,19,,,,21,70,09,262,16,79,13,126,38*6F
$GLGSV,3,2,10,69,52,309,20,84,56,286,19,83,39,192,29,85,14,331,36*62
$GLGSV,3,3,10,68,41,032,30,77,11,033,*6D
$GPGSV,4,1,13,02,20,143,29,05,45,067,27,13,73,049,36,15,68,243,42*74
$GPGSV,4,2,13,18,11,284,18,20,63,333,27,21,30,312,23,24,11,178,16*7C
$GPGSV,4,3,13,29,31,232,47,30,14,046,21,41,,,42,42,,,35*71
$GPGSV,4,4,13,50,,,36*7B
$BDGSV,3,1,09,01,38,144,36,02,35,227,38,03,45,189,41,09,52,261,20*6B
$BDGSV,3,2,09,13,,,43,14,62,022,27,04,26,122,,06,73,306,*57
$BDGSV,3,3,09,11,15,182,*5E
$GNGGA,073251.00,3637.268691,N,11700.563066,E,1,08,0.8,132.7,M,-4.0,M,,*6A
$GNVTG,0.0,T,5.4,M,0.0,N,0.0,K,A*3C
