$GLGSA,A,1,,,,,,,,,,,,,,,*02
$BDGSA,A,1,,,,,,,,,,,,,,,*0F
$GNGGA,,,,,,0,,,,,,,,*78
$GNRMC,,V,,,,,,,,,,N*4D
$GLGSV,1,1,03,,,,35,,,,45,,,,34*66
$GPGSV,1,1,04,02,,,47,05,,,37,29,,,51,41,,,45*76
$BDGSV,1,1,01,04,,,41*68
$GNVTG,,T,,M,,N,,K,N*32
$GPGSA,A,1,,,,,,,,,,,,,,,*1E
$GLGSA,A,1,,,,,,,,,,,,,,,*02
$BDGSA,A,1,,,,,,,,,,,,,,,*0F
$GNGGA,,,,,,0,,,,,,,,*78
$GNRMC,,V,,,,,,,,,,N*4D
$GLGSV,1,1,03,,,,35,,,,46,,,,34*65
$GPGSV,2,1,05,02,,,47,05,,,37,13,,,29,29,,,51*79
$GPGSV,2,2,05,41,,,45*78
$BDGSV,1,1,01,04,,,41*68
$GNVTG,,T,,M,,N,,K,N*32
$GPGSA,A,1,,,,,,,,,,,,,,,*1E
$GLGSA,A,1,,,,,,,,,,,,,,,*02
$BDGSA,A,1,,,,,,,,,,,,,,,*0F
$GNGGA,,,,,,0,,,,,,,,*78
$GNRMC,,V,,,,,,,,,,N*4D
$GLGSV,1,1,04,,,,36,,,,46,,,,29,,,,33*6D
$GPGSV,2,1,06,02,,,47,05,,,38,13,,,29,15,,,37*7A
$GPGSV,2,2,06,29,,,51,41,,,45*74
$BDGSV,1,1,01,04,,,41*68
$GNVTG,,T,,M,,N,,K,N*32
$GPGSA,A,1,,,,,,,,,,,,,,,*1E
$GLGSA,A,1,,,,,,,,,,,,,,,*02
$BDGSA,A,1,,,,,,,,,,,,,,,*0F
$GNGGA,,,,,,0,,,,,,,,*78
$GNRMC,,V,,,,,,,,,,N*4D
$GLGSV,1,1,04,,,,35,,,,46,,,,32,,,,34*63
$GPGSV,2,1,06,02,,,47,05,,,38,13,,,30,15,,,39*7C
$GPGSV,2,2,06,29,,,51,41,,,45*74
$BDGSV,1,1,01,04,,,41*68
$GNVTG,,T,,M,,N,,K,N*32
$GPGSA,A,1,,,,,,,,,,,,,,,*1E
$GLGSA,A,1,,,,,,,,,,,,,,,*02
$BDGSA,A,1,,,,,,,,,,,,,,,*0F
$GNGGA,,,,,,0,,,,,,,,*78
$GNRMC,,V,,,,,,,,,,N*4D
$GLGSV,1,1,04,,,,36,,,,46,,,,31,,,,33*64
$GPGSV,2,1,06,02,,,47,05,,,37,13,,,30,15,,,38*72
$GPGSV,2,2,06,29,,,51,41,,,45*74
$BDGSV,1,1,01,04,,,41*68
$GNVTG,,T,,M,,N,,K,N*32
$GPGSA,A,1,,,,,,,,,,,,,,,*1E
$GLGSA,A,1,,,,,,,,,,,,,,,*02
$BDGSA,A,1,,,,,,,,,,,,,,,*0F
$GNGGA,,,,,,0,,,,,,,,*78
$GNRMC,,V,,,,,,,,,,N*4D
$GLGSV,1,1,04,,,,36,,,,46,,,,32,,,,34*60
$GPGSV,2,1,06,02,,,47,05,,,38,13,,,30,15,,,39*7C
$GPGSV,2,2,06,29,,,51,41,,,45*74
$BDGSV,1,1,01,04,,,41*68
$GNVTG,,T,,M,,N,,K,N*32
$GPGSA,A,1,,,,,,,,,,,,,,,*1E
$GLGSA,A,1,,,,,,,,,,,,,,,*02
$BDGSA,A,1,,,,,,,,,,,,,,,*0F
$GNGGA,,,,,,0,,,,,,,,*78
$GNRMC,,V,,,,,,,,,,N*4D
$GLGSV,1,1,04,,,,35,,,,46,,,,31,,,,33*67
$GPGSV,2,1,06,02,,,47,05,,,38,13,,,28,15,,,39*75
$GPGSV,2,2,06,29,,,51,41,,,45*74
$BDGSV,1,1,01,04,,,41*68
$GNVTG,,T,,M,,N,,K,N*32
$GPGSA,A,1,,,,,,,,,,,,,,,*1E
$GLGSA,A,1,,,,,,,,,,,,,,,*02
$BDGSA,A,1,,,,,,,,,,,,,,,*0F
$GNGGA,,,,,,0,,,,,,,,*78
$GNRMC,,V,,,,,,,,,,N*4D
$GLGSV,1,1,04,,,,35,,,,46,,,,31,,,,33*67
$GPGSV,2,1,06,02,,,47,05,,,37,13,,,28,15,,,39*7A
$GPGSV,2,2,06,29,,,51,41,,,45*74
$BDGSV,1,1,01,04,,,41*68
$GNVTG,,T,,M,,N,,K,N*32
$GPGSA,A,1,,,,,,,,,,,,,,,*1E
$GLGSA,A,1,,,,,,,,,,,,,,,*02
$BDGSA,A,1,,,,,,,,,,,,,,,*0F
$GNGGA,,,,,,0,,,,,,,,*78
$GNRMC,,V,,,,,,,,,,N*4D
$GLGSV,1,1,04,,,,35,,,,46,,,,32,,,,33*64
$GPGSV,2,1,06,02,,,47,05,,,37,13,,,29,15,,,40*75
$GPGSV,2,2,06,29,,,51,41,,,45*74
$BDGSV,1,1,01,04,,,41*68
$GNVTG,,T,,M,,N,,K,N*32
$GPGSA,A,1,,,,,,,,,,,,,,,*1E
$GLGSA,A,1,,,,,,,,,,,,,,,*02
$BDGSA,A,1,,,,,,,,,,,,,,,*0F
$GNGGA,,,,,,0,,,,,,,,*78
$GNRMC,,V,,,,,,,,,,N*4D
$GLGSV,1,1,04,,,,35,,,,46,,,,31,,,,33*67
$GPGSV,2,1,06,02,,,47,05,,,37,13,,,29,15,,,39*7B
$GPGSV,2,2,06,29,,,51,41,,,45*74
$BDGSV,1,1,01,04,,,41*68
$GNVTG,,T,,M,,N,,K,N*32
$GPGSA,A,1,,,,,,,,,,,,,,,*1E
$GLGSA,A,1,,,,,,,,,,,,,,,*02
$BDGSA,A,1,,,,,,,,,,,,,,,*0F
$GNGGA,,,,,,0,,,,,,,,*78
$GNRMC,,V,,,,,,,,,,N*4D
$GLGSV,1,1,04,,,,35,,,,46,,,,31,,,,34*60
$GPGSV,2,1,06,02,,,46,05,,,37,13,,,28,15,,,39*7B
$GPGSV,2,2,06,29,,,51,41,,,45*74
$BDGSV,1,1,01,04,,,41*68
$GNVTG,,T,,M,,N,,K,N*32
$GPGSA,A,1,,,,,,,,,,,,,,,*1E
$GLGSA,A,1,,,,,,,,,,,,,,,*02
$BDGSA,A,1,,,,,,,,,,,,,,,*0F
$GNGGA,,,,,,0,,,,,,,,*78
$GNRMC,,V,,,,,,,,,,N*4D
$GLGSV,1,1,04,,,,35,,,,46,,,,32,,,,34*63
$GPGSV,2,1,06,02,,,46,05,,,37,13,,,26,15,,,39*75
$GPGSV,2,2,06,29,,,51,41,,,45*74
$BDGSV,1,1,01,04,,,41*68
$GNVTG,,T,,M,,N,,K,N*32
$GPGSA,A,1,,,,,,,,,,,,,,,*1E
$GLGSA,A,1,,,,,,,,,,,,,,,*02
$BDGSA,A,1,,,,,,,,,,,,,,,*0F
$GNGGA,,,,,,0,,,,,,,,*78
$GNRMC,,V,,,,,,,,,,N*4D
$GLGSV,2,1,07,79,11,127,35,83,41,192,46,85,12,331,32,,,,34*52
$GLGSV,2,2,07,70,08,261,,77,11,035,,84,56,291,*5B
$GPGSV,2,1,07,02,22,142,47,05,45,067,38,13,74,050,27,15,67,239,39*73
$GPGSV,2,2,07,20,62,327,32,29,32,232,52,41,,,45*75
$BDGSV,1,1,04,04,,,41,01,38,144,,02,35,227,,03,45,189,*57
$GNGGA,062319.60,3637.277643,N,11700.552574,E,1,05,1.0,92.8,M,-4.0,M,,*54
$GNVTG,,T,5.4,M,0.0,N,0.0,K,A*12
$GNRMC,062319.60,A,3637.277643,N,11700.552574,E,0.0,,281017,5.4,W,A*13
$GPGSA,A,3,02,05,13,15,29,,,,,,,,2.0,1.0,1.7*3D
$GLGSA,A,3,79,83,85,,,,,,,,,,2.0,1.0,1.7*23
$BDGSA,A,3,,,,,,,,,,,,,2.0,1.0,1.7*26
$GLGSV,2,1,07,79,11,127,35,83,41,192,46,85,12,331,32,,,,34*52
$GLGSV,2,2,07,70,08,261,,77,11,035,,84,56,291,*5B
$GPGSV,2,1,07,02,22,142,47,05,45,067,38,13,74,050,27,15,67,239,39*73
$GPGSV,2,2,07,20,62,327,32,29,32,232,52,41,,,45*75
$BDGSV,1,1,04,04,,,41,01,38,144,,02,35,227,,03,45,189,*57
$GNGGA,062321.00,3637.277651,N,11700.552577,E,1,05,1.0,92.8,M,-4.0,M,,*59
$GNVTG,,T,5.4,M,0.0,N,0.0,K,A*12
$GNRMC,062321.00,A,3637.277651,N,11700.552577,E,0.0,,281017,5.4,W,A*1E
$GPGSA,A,3,02,05,13,15,29,,,,,,,,2.0,1.0,1.7*3D
$GLGSA,A,3,79,83,85,,,,,,,,,,2.0,1.0,1.7*23
$BDGSA,A,3,,,,,,,,,,,,,2.0,1.0,1.7*26
$GLGSV,2,1,07,79,11,127,34,83,41,192,46,85,12,331,31,,,,34*50
$GLGSV,2,2,07,70,08,261,,77,11,035,,84,56,291,*5B
$GPGSV,2,1,07,02,22,142,46,05,45,067,38,13,74,050,25,15,67,239,40*7E
$GPGSV,2,2,07,20,62,327,30,29,32,232,51,41,,,45*74
$BDGSV,1,1,04,04,,,41,01,38,144,,02,35,227,,03,45,189,*57
$GNGGA,062322.00,3637.277857,N,11700.553292,E,1,05,1.0,89.9,M,-4.0,M,,*54
$GNVTG,0.0,T,5.4,M,0.0,N,0.0,K,A*3C
$GNRMC,062322.00,A,3637.277857,N,11700.553292,E,0.0,0.0,281017,5.4,W,A*36
$GPGSA,A,2,02,05,13,15,29,,,,,,,,1.3,1.0,0.8*32
$GLGSA,A,2,79,83,85,,,,,,,,,,1.3,1.0,0.8*2C
$BDGSA,A,2,,,,,,,,,,,,,1.3,1.0,0.8*29
$GLGSV,2,1,07,79,11,127,34,83,41,192,46,85,12,331,32,,,,33*54
$GLGSV,2,2,07,70,08,261,,77,11,035,,84,56,291,*5B
$GPGSV,2,1,07,02,22,142,46,05,45,067,38,13,74,050,27,15,67,239,40*7C
$GPGSV,2,2,07,20,62,327,28,29,32,232,52,41,,,45*7E
$BDGSV,1,1,04,04,,,41,01,38,144,,02,35,227,,03,45,189,*57
$GNGGA,062323.00,3637.277148,N,11700.552825,E,1,05,1.0,86.7,M,-4.0,M,,*54
$GNVTG,0.0,T,5.4,M,0.0,N,0.0,K,A*3C
$GNRMC,062323.00,A,3637.277148,N,11700.552825,E,0.0,0.0,281017,5.4,W,A*37
$GPGSA,A,2,02,05,13,15,29,,,,,,,,1.3,1.0,0.8*32
$GLGSA,A,2,79,83,85,,,,,,,,,,1.3,1.0,0.8*2C
$BDGSA,A,2,,,,,,,,,,,,,1.3,1.0,0.8*29
$GLGSV,2,1,07,79,11,127,34,83,41,192,46,85,12,331,31,,,,33*57
$GLGSV,2,2,07,70,08,261,,77,11,035,,84,56,291,*5B
$GPGSV,2,1,07,02,22,142,46,05,45,067,38,13,74,050,24,15,67,239,40*7F
$GPGSV,2,2,07,29,32,232,51,20,62,327,,41,,,45*77
$BDGSV,1,1,04,04,,,41,01,38,144,,02,35,227,,03,45,189,*57
$GNGGA,062324.00,3637.276757,N,11700.552687,E,1,05,1.0,85.8,M,-4.0,M,,*50
$GNVTG,0.0,T,5.4,M,0.0,N,0.0,K,A*3C
$GNRMC,062324.00,A,3637.276757,N,11700.552687,E,0.0,0.0,281017,5.4,W,A*3F
$GPGSA,A,2,02,05,13,15,29,,,,,,,,1.3,1.0,0.8*32
$GLGSA,A,2,79,83,85,,,,,,,,,,1.3,1.0,0.8*2C
$BDGSA,A,2,,,,,,,,,,,,,1.3,1.0,0.8*29
$GLGSV,2,1,07,79,11,127,33,83,41,192,46,85,12,331,31,,,,34*57
$GLGSV,2,2,07,70,08,261,,77,11,035,,84,56,291,*5B
$GPGSV,2,1,07,02,22,142,46,05,45,067,39,13,74,050,24,15,67,239,40*7E
$GPGSV,2,2,07,29,32,232,52,20,62,327,,41,,,45*74
$BDGSV,1,1,04,04,,,41,01,38,144,,02,35,227,,03,45,189,*57
$GNGGA,062325.00,3637.276333,N,11700.552578,E,1,05,1.0,84.9,M,-4.0,M,,*54
$GNVTG,0.0,T,5.4,M,0.0,N,0.0,K,A*3C
$GNRMC,062325.00,A,3637.276333,N,11700.552578,E,0.0,0.0,281017,5.4,W,A*3B
$GPGSA,A,2,02,05,13,15,29,,,,,,,,1.3,1.0,0.8*32
$GLGSA,A,2,79,83,85,,,,,,,,,,1.3,1.0,0.8*2C
$BDGSA,A,2,,,,,,,,,,,,,1.3,1.0,0.8*29
$GLGSV,2,1,07,79,11,127,34,83,41,192,46,85,12,331,32,,,,33*54
$GLGSV,2,2,07,70,08,261,,77,11,035,,84,56,291,*5B
$GPGSV,2,1,07,02,22,142,46,05,45,067,39,13,74,050,26,15,67,239,40*7C
$GPGSV,2,2,07,29,32,232,52,20,62,327,,41,,,45*74
$BDGSV,1,1,04,04,,,41,01,38,144,,02,35,227,,03,45,189,*57
$GNGGA,062326.00,3637.275680,N,11700.552596,E,1,05,1.0,85.0,M,-4.0,M,,*51
$GNVTG,0.0,T,5.4,M,0.0,N,0.0,K,A*3C
$GNRMC,062326.00,A,3637.275680,N,11700.552596,E,0.0,0.0,281017,5.4,W,A*36
$GPGSA,A,2,02,05,13,15,29,,,,,,,,1.3,1.0,0.8*32
$GLGSA,A,2,79,83,85,,,,,,,,,,1.3,1.0,0.8*2C
$BDGSA,A,2,,,,,,,,,,,,,1.3,1.0,0.8*29
$GLGSV,2,1,07,79,11,127,34,83,41,192,46,85,12,331,31,,,,33*57
$GLGSV,2,2,07,70,08,261,,77,11,035,,84,56,291,*5B
$GPGSV,2,1,07,02,22,142,46,05,45,067,39,13,74,050,26,15,67,239,40*7C
$GPGSV,2,2,07,29,32,232,52,20,62,327,,41,,,45*74
$BDGSV,2,1,05,04,,,41,13,,,39,01,38,144,,02,35,227,*6F
$BDGSV,2,2,05,03,45,189,*5F
$GNGGA,062327.00,3637.275496,N,11700.552490,E,1,05,1.0,84.2,M,-4.0,M,,*51
$GNVTG,0.0,T,5.4,M,0.0,N,0.0,K,A*3C
$GNRMC,062327.00,A,3637.275496,N,11700.552490,E,0.0,0.0,281017,5.4,W,A*35
$GPGSA,A,2,02,05,13,15,29,,,,,,,,1.3,1.0,0.8*32
$GLGSA,A,2,79,83,85,,,,,,,,,,1.3,1.0,0.8*2C
$BDGSA,A,2,,,,,,,,,,,,,1.3,1.0,0.8*29
$GLGSV,2,1,07,79,11,127,35,83,41,192,46,85,12,331,32,,,,32*54
$GLGSV,2,2,07,70,08,261,,77,11,035,,84,56,291,*5B
$GPGSV,2,1,08,02,22,142,46,05,45,067,39,15,67,239,40,29,32,232,52*7D
$GPGSV,2,2,08,13,74,050,,20,62,327,,40,,,36,41,,,45*70
$BDGSV,2,1,05,04,,,41,13,,,39,01,38,144,,02,35,227,*6F
$BDGSV,2,2,05,03,45,189,*5F
$GNGGA,062328.00,3637.275468,N,11700.552551,E,1,05,1.0,84.0,M,-4.0,M,,*51
$GNVTG,0.0,T,5.4,M,0.0,N,0.0,K,A*3C
$GNRMC,062328.00,A,3637.275468,N,11700.552551,E,0.0,0.0,281017,5.4,W,A*37
$GPGSA,A,2,02,05,13,15,29,,,,,,,,1.3,1.0,0.8*32
$GLGSA,A,2,79,83,85,,,,,,,,,,1.3,1.0,0.8*2C
$BDGSA,A,2,,,,,,,,,,,,,1.3,1.0,0.8*29
$GLGSV,2,1,07,79,11,127,35,83,41,192,46,85,12,331,32,,,,33*55
$GLGSV,2,2,07,70,08,261,,77,11,035,,84,56,291,*5B
$GPGSV,2,1,08,02,22,142,46,05,45,067,39,15,67,239,40,29,32,232,52*7D
$GPGSV,2,2,08,13,74,050,,20,62,327,,40,,,36,41,,,45*70
$BDGSV,2,1,05,04,,,41,13,,,39,01,38,144,,02,35,227,*6F
$BDGSV,2,2,05,03,45,189,*5F
$GNGGA,062329.00,3637.275385,N,11700.552570,E,1,05,1.0,83.7,M,-4.0,M,,*57
$GNVTG,0.0,T,5.4,M,0.0,N,0.0,K,A*3C
$GNRMC,062329.00,A,3637.275385,N,11700.552570,E,0.0,0.0,281017,5.4,W,A*31
$GPGSA,A,2,02,05,13,15,29,,,,,,,,1.3,1.0,0.8*32
$GLGSA,A,2,79,83,85,,,,,,,,,,1.3,1.0,0.8*2C
$BDGSA,A,2,,,,,,,,,,,,,1.3,1.0,0.8*29
$GLGSV,2,1,07,79,11,127,35,83,41,192,47,85,12,331,32,,,,33*54
$GLGSV,2,2,07,70,08,261,,77,11,035,,84,56,291,*5B
$GPGSV,2,1,08,02,22,142,46,05,45,067,38,15,67,239,40,29,32,232,52*7C
$GPGSV,2,2,08,13,74,050,,20,62,327,,40,,,35,41,,,45*73
$BDGSV,2,1,05,04,,,41,13,,,39,01,38,144,,02,35,227,*6F
$BDGSV,2,2,05,03,45,189,*5F
$GNGGA,062330.00,3637.275286,N,11700.552621,E,1,05,1.0,83.2,M,-4.0,M,,*5F
$GNVTG,0.0,T,5.4,M,0.0,N,0.0,K,A*3C
$GNRMC,062330.00,A,3637.275286,N,11700.552621,E,0.0,0.0,281017,5.4,W,A*3C
$GPGSA,A,2,02,05,13,15,29,,,,,,,,1.3,1.0,0.8*32
$GLGSA,A,2,79,83,85,,,,,,,,,,1.3,1.0,0.8*2C
$BDGSA,A,2,,,,,,,,,,,,,1.3,1.0,0.8*29
$GLGSV,2,1,07,79,11,127,36,83,41,192,46,85,12,331,32,,,,33*56
$GLGSV,2,2,07,70,08,261,,77,11,035,,84,56,291,*5B
$GPGSV,2,1,08,02,22,142,46,05,45,067,38,15,67,239,40,29,32,232,52*7C
$GPGSV,2,2,08,13,74,050,,20,62,327,,40,,,35,41,,,45*73
$BDGSV,2,1,05,04,,,41,13,,,39,01,38,144,,02,35,227,*6F
$BDGSV,2,2,05,03,45,189,*5F
$GNGGA,062331.00,3637.275201,N,11700.552549,E,1,05,1.0,82.9,M,-4.0,M,,*56
$GNVTG,0.0,T,5.4,M,0.0,N,0.0,K,A*3C
$GNRMC,062331.00,A,3637.275201,N,11700.552549,E,0.0,0.0,281017,5.4,W,A*3F
$GPGSA,A,2,02,05,13,15,29,,,,,,,,1.3,1.0,0.8*32
$GLGSA,A,2,79,83,85,,,,,,,,,,1.3,1.0,0.8*2C
$BDGSA,A,2,,,,,,,,,,,,,1.3,1.0,0.8*29
$GLGSV,2,1,07,79,11,127,36,83,41,192,47,85,12,331,32,,,,33*57
$GLGSV,2,2,07,70,08,261,,77,11,035,,84,56,291,*5B
$GPGSV,2,1,08,02,22,142,46,05,45,067,38,15,67,239,40,29,32,232,52*7C
$GPGSV,2,2,08,13,74,050,,20,62,327,,40,,,35,41,,,45*73
$BDGSV,2,1,05,04,,,41,13,,,39,01,38,144,,02,35,227,*6F
$BDGSV,2,2,05,03,45,189,*5F
$GNGGA,062332.00,3637.275250,N,11700.552579,E,1,05,1.0,82.6,M,-4.0,M,,*5D
$GNVTG,0.0,T,5.4,M,0.0,N,0.0,K,A*3C
$GNRMC,062332.00,A,3637.275250,N,11700.552579,E,0.0,0.0,281017,5.4,W,A*3B
$GPGSA,A,2,02,05,13,15,29,,,,,,,,1.3,1.0,0.8*32
$GLGSA,A,2,79,83,85,,,,,,,,,,1.3,1.0,0.8*2C
$BDGSA,A,2,,,,,,,,,,,,,1.3,1.0,0.8*29
$GLGSV,2,1,07,79,11,127,36,83,41,192,47,85,12,331,32,,,,32*56
$GLGSV,2,2,07,70,08,261,,77,11,035,,84,56,291,*5B
$GPGSV,2,1,08,02,22,142,46,05,45,067,38,15,67,239,40,29,32,232,52*7C
$GPGSV,2,2,08,13,74,050,,20,62,327,,40,,,35,41,,,45*73
$BDGSV,2,1,05,04,,,41,13,,,39,01,38,144,,02,35,227,*6F
$BDGSV,2,2,05,03,45,189,*5F
$GNGGA,062333.00,3637.275304,N,11700.552592,E,1,04,1.0,82.5,M,-4.0,M,,*5B
$GNVTG,0.0,T,5.4,M,0.0,N,0.0,K,A*3C
$GNRMC,062333.00,A,3637.275304,N,11700.552592,E,0.0,0.0,281017,5.4,W,A*3F
$GPGSA,A,2,02,05,15,29,,,,,,,,,1.3,1.0,0.9*31
$GLGSA,A,2,79,83,85,,,,,,,,,,1.3,1.0,0.9*2D
$BDGSA,A,2,,,,,,,,,,,,,1.3,1.0,0.9*28
$GLGSV,2,1,07,79,11,127,36,83,41,192,47,85,12,331,33,,,,32*57
$GLGSV,2,2,07,70,08,261,,77,11,035,,84,56,291,*5B
$GPGSV,2,1,08,02,22,142,46,05,45,067,39,15,67,239,40,29,32,232,52*7D
$GPGSV,2,2,08,13,74,050,,20,62,327,,40,,,35,41,,,45*73
$BDGSV,2,1,05,04,,,41,13,,,39,01,38,144,,02,35,227,*6F
$BDGSV,2,2,05,03,45,189,*5F
$GNGGA,062334.00,3637.275277,N,11700.552593,E,1,04,1.0,82.5,M,-4.0,M,,*58
$GNVTG,0.0,T,5.4,M,0.0,N,0.0,K,A*3C
$GNRMC,062334.00,A,3637.275277,N,11700.552593,E,0.0,0.0,281017,5.4,W,A*3C
$GPGSA,A,2,02,05,15,29,,,,,,,,,1.3,1.0,0.9*31
$GLGSA,A,2,79,83,85,,,,,,,,,,1.3,1.0,0.9*2D
$BDGSA,A,2,,,,,,,,,,,,,1.3,1.0,0.9*28
$GLGSV,2,1,07,79,11,127,36,83,41,192,46,85,12,331,33,,,,32*56
$GLGSV,2,2,07,70,08,261,,77,11,035,,84,56,291,*5B
$GPGSV,2,1,08,02,22,142,46,05,45,067,38,15,67,239,41,29,32,232,52*7D
$GPGSV,2,2,08,13,74,050,,20,62,327,,40,,,35,41,,,45*73
$BDGSV,2,1,05,04,,,41,13,,,39,01,38,144,,02,35,227,*6F
$BDGSV,2,2,05,03,45,189,*5F
$GNGGA,062335.00,3637.275275,N,11700.552593,E,1,04,1.0,82.5,M,-4.0,M,,*5B
$GNVTG,0.0,T,5.4,M,0.0,N,0.0,K,A*3C
$GNRMC,062335.00,A,3637.275275,N,11700.552593,E,0.0,0.0,281017,5.4,W,A*3F
$GPGSA,A,2,02,05,15,29,,,,,,,,,1.3,1.0,0.9*31
$GLGSA,A,2,79,83,85,,,,,,,,,,1.3,1.0,0.9*2D
$BDGSA,A,2,,,,,,,,,,,,,1.3,1.0,0.9*28
$GLGSV,2,1,07,79,11,127,36,83,41,192,47,85,12,331,33,,,,31*54
$GLGSV,2,2,07,70,08,261,,77,11,035,,84,56,291,*5B
$GPGSV,2,1,08,02,22,142,46,05,45,067,38,15,67,239,41,29,32,232,52*7D
$GPGSV,2,2,08,13,74,050,,20,62,327,,40,,,35,41,,,45*73
$BDGSV,2,1,05,04,,,41,13,,,38,01,38,144,,02,35,227,*6E
$BDGSV,2,2,05,03,45,189,*5F
$GNGGA,062336.00,3637.275278,N,11700.552592,E,1,04,1.0,82.5,M,-4.0,M,,*54
$GNVTG,0.0,T,5.4,M,0.0,N,0.0,K,A*3C
$GNRMC,062336.00,A,3637.275278,N,11700.552592,E,0.0,0.0,281017,5.4,W,A*30
$GPGSA,A,2,02,05,15,29,,,,,,,,,1.3,1.0,0.9*31
$GLGSA,A,2,79,83,85,,,,,,,,,,1.3,1.0,0.9*2D
$BDGSA,A,2,,,,,,,,,,,,,1.3,1.0,0.9*28
$GLGSV,2,1,07,79,11,127,36,83,41,192,46,85,12,331,33,,,,32*56
$GLGSV,2,2,07,70,08,261,,77,11,035,,84,56,291,*5B
$GPGSV,3,1,09,02,22,142,46,05,45,067,39,15,67,239,40,29,32,232,52*7D
$GPGSV,3,2,09,13,74,050,,20,62,327,,35,,,39,40,,,35*7B
$GPGSV,3,3,09,41,,,45*74
$BDGSV,2,1,05,04,,,41,13,,,39,01,38,144,,02,35,227,*6F
$BDGSV,2,2,05,03,45,189,*5F
$GNGGA,062337.00,3637.275283,N,11700.552593,E,1,04,1.0,82.5,M,-4.0,M,,*50
$GNVTG,0.0,T,5.4,M,0.0,N,0.0,K,A*3C
$GNRMC,062337.00,A,3637.275283,N,11700.552593,E,0.0,0.0,281017,5.4,W,A*34
$GPGSA,A,2,02,05,15,29,,,,,,,,,1.3,1.0,0.9*31
$GLGSA,A,2,79,83,85,,,,,,,,,,1.3,1.0,0.9*2D
$BDGSA,A,2,,,,,,,,,,,,,1.3,1.0,0.9*28
$GLGSV,2,1,07,79,11,127,36,83,41,192,47,85,12,331,33,,,,31*54
$GLGSV,2,2,07,70,08,261,,77,11,035,,84,56,291,*5B
$GPGSV,3,1,09,02,22,142,46,05,45,067,39,15,67,239,40,29,32,232,52*7D
$GPGSV,3,2,09,13,74,050,,20,62,327,,35,,,39,40,,,35*7B
$GPGSV,3,3,09,41,,,45*74
$BDGSV,2,1,05,04,,,41,13,,,39,01,38,144,,02,35,227,*6F
$BDGSV,2,2,05,03,45,189,*5F
$GNGGA,062338.00,3637.275282,N,11700.552595,E,1,04,1.0,82.5,M,-4.0,M,,*58
$GNVTG,0.0,T,5.4,M,0.0,N,0.0,K,A*3C
$GNRMC,062338.00,A,3637.275282,N,11700.552595,E,0.0,0.0,281017,5.4,W,A*3C
$GPGSA,A,2,02,05,15,29,,,,,,,,,1.3,1.0,0.9*31
$GLGSA,A,2,79,83,85,,,,,,,,,,1.3,1.0,0.9*2D
$BDGSA,A,2,,,,,,,,,,,,,1.3,1.0,0.9*28
$GLGSV,2,1,07,79,11,127,36,83,41,192,46,85,12,331,33,68,42,030,31*6E
$GLGSV,2,2,07,70,08,261,,77,11,035,,84,56,291,*5B
$GPGSV,3,1,10,02,22,142,47,05,45,067,39,15,67,239,40,29,32,232,52*74
$GPGSV,3,2,10,13,74,050,,20,62,327,,35,,,39,40,,,35*73
$GPGSV,3,3,10,41,,,45,50,,,36*7C
$BDGSV,2,1,05,04,,,41,13,,,39,01,38,144,,02,35,227,*6F
$BDGSV,2,2,05,03,45,189,*5F
$GNGGA,062339.00,3637.275279,N,11700.552596,E,1,04,0.9,82.5,M,-4.0,M,,*56
$GNVTG,0.0,T,5.4,M,0.0,N,0.0,K,A*3C
$GNRMC,062339.00,A,3637.275279,N,11700.552596,E,0.0,0.0,281017,5.4,W,A*3A
$GPGSA,A,2,02,05,15,29,,,,,,,,,1.3,0.9,0.9*39
$GLGSA,A,2,68,79,83,85,,,,,,,,,1.3,0.9,0.9*2B
$BDGSA,A,2,,,,,,,,,,,,,1.3,0.9,0.9*20
$GLGSV,2,1,07,79,11,127,36,83,41,192,47,85,12,331,33,68,42,030,30*6E
$GLGSV,2,2,07,70,08,261,,77,11,035,,84,56,291,*5B
$GPGSV,3,1,11,02,22,142,47,05,45,067,39,15,67,239,40,29,32,232,52*75
$GPGSV,3,2,11,13,74,050,,20,62,327,,35,,,39,40,,,35*72
$GPGSV,3,3,11,41,,,45,42,,,36,50,,,37*7F
$BDGSV,2,1,05,04,,,41,13,,,38,01,38,144,,02,35,227,*6E
$BDGSV,2,2,05,03,45,189,*5F
$GNGGA,062340.00,3637.275265,N,11700.552605,E,1,04,0.9,82.5,M,-4.0,M,,*5C
$GNVTG,0.0,T,5.4,M,0.0,N,0.0,K,A*3C
$GNRMC,062340.00,A,3637.275265,N,11700.552605,E,0.0,0.0,281017,5.4,W,A*30
$GPGSA,A,2,02,05,15,29,,,,,,,,,1.3,0.9,0.9*39
$GLGSA,A,2,68,79,83,85,,,,,,,,,1.3,0.9,0.9*2B
$BDGSA,A,2,,,,,,,,,,,,,1.3,0.9,0.9*20
$GLGSV,2,1,07,79,11,127,36,83,41,192,47,85,12,331,33,68,42,030,30*6E
$GLGSV,2,2,07,70,08,261,,77,11,035,,84,56,291,*5B
$GPGSV,3,1,11,02,22,142,47,05,45,067,39,15,67,239,40,29,32,232,52*75
$GPGSV,3,2,11,13,74,050,,20,62,327,,35,,,39,40,,,35*72
$GPGSV,3,3,11,41,,,45,42,,,36,50,,,37*7F
$BDGSV,2,1,05,04,,,41,13,,,39,01,38,144,,02,35,227,*6F
$BDGSV,2,2,05,03,45,189,*5F
$GNGGA,062341.00,3637.275262,N,11700.552608,E,1,04,0.9,82.5,M,-4.0,M,,*57
$GNVTG,0.0,T,5.4,M,0.0,N,0.0,K,A*3C
$GNRMC,062341.00,A,3637.275262,N,11700.552608,E,0.0,0.0,281017,5.4,W,A*3B
$GPGSA,A,2,02,05,15,29,,,,,,,,,1.3,0.9,0.9*39
$GLGSA,A,2,68,79,83,85,,,,,,,,,1.3,0.9,0.9*2B
$BDGSA,A,2,,,,,,,,,,,,,1.3,0.9,0.9*20
$GLGSV,2,1,07,79,11,127,36,83,41,192,47,85,12,331,33,68,42,030,30*6E
$GLGSV,2,2,07,70,08,261,,77,11,035,,84,56,291,*5B
$GPGSV,3,1,11,02,22,142,47,05,45,067,40,15,67,239,40,29,32,232,52*7B
$GPGSV,3,2,11,13,74,050,,20,62,327,,35,,,39,40,,,35*72
$GPGSV,3,3,11,41,,,45,42,,,36,50,,,36*7E
$BDGSV,2,1,05,04,,,41,13,,,39,01,38,144,,02,35,227,*6F
$BDGSV,2,2,05,03,45,189,*5F
$GNGGA,062342.00,3637.275262,N,11700.552609,E,1,04,0.9,82.5,M,-4.0,M,,*55
$GNVTG,0.0,T,5.4,M,0.0,N,0.0,K,A*3C
$GNRMC,062342.00,A,3637.275262,N,11700.552609,E,0.0,0.0,281017,5.4,W,A*39
$GPGSA,A,2,02,05,15,29,,,,,,,,,1.3,0.9,0.9*39
$GLGSA,A,2,68,79,83,85,,,,,,,,,1.3,0.9,0.9*2B
$BDGSA,A,2,,,,,,,,,,,,,1.3,0.9,0.9*20
$GLGSV,2,1,07,79,11,127,36,83,41,192,47,85,12,331,33,68,42,030,30*6E
$GLGSV,2,2,07,70,08,261,,77,11,035,,84,56,291,*5B
$GPGSV,3,1,11,02,22,142,47,05,45,067,39,15,67,239,40,20,62,327,27*7E
$GPGSV,3,2,11,29,32,232,52,13,74,050,,35,,,39,40,,,35*7C
$GPGSV,3,3,11,41,,,45,42,,,36,50,,,37*7F
$BDGSV,2,1,05,04,,,41,13,,,39,01,38,144,,02,35,227,*6F
$BDGSV,2,2,05,03,45,189,*5F
$GNGGA,062343.00,3637.275255,N,11700.552611,E,1,04,0.9,82.5,M,-4.0,M,,*59
$GNVTG,0.0,T,5.4,M,0.0,N,0.0,K,A*3C
$GNRMC,062343.00,A,3637.275255,N,11700.552611,E,0.0,0.0,281017,5.4,W,A*35
$GPGSA,A,2,02,05,15,29,,,,,,,,,1.3,0.9,0.9*39
$GLGSA,A,2,68,79,83,85,,,,,,,,,1.3,0.9,0.9*2B
$BDGSA,A,2,,,,,,,,,,,,,1.3,0.9,0.9*20
$GLGSV,2,1,07,79,11,127,36,83,41,192,47,85,12,331,33,68,42,030,30*6E
$GLGSV,2,2,07,70,08,261,,77,11,035,,84,56,291,*5B
$GPGSV,3,1,11,02,22,142,47,05,45,067,39,15,67,239,39,20,62,327,26*71
$GPGSV,3,2,11,29,32,232,52,13,74,050,,35,,,39,40,,,35*7C
$GPGSV,3,3,11,41,,,45,42,,,36,50,,,36*7E
$BDGSV,2,1,05,04,,,41,13,,,38,01,38,144,,02,35,227,*6E
$BDGSV,2,2,05,03,45,189,*5F
$GNGGA,062344.00,3637.275247,N,11700.552615,E,1,04,0.9,82.6,M,-4.0,M,,*5A
$GNVTG,0.0,T,5.4,M,0.0,N,0.0,K,A*3C
$GNRMC,062344.00,A,3637.275247,N,11700.552615,E,0.0,0.0,281017,5.4,W,A*35
$GPGSA,A,2,02,05,15,29,,,,,,,,,1.3,0.9,0.9*39
$GLGSA,A,2,68,79,83,85,,,,,,,,,1.3,0.9,0.9*2B
$BDGSA,A,2,,,,,,,,,,,,,1.3,0.9,0.9*20
$GLGSV,2,1,07,79,11,127,36,83,41,192,47,85,12,331,33,68,42,030,31*6F
$GLGSV,2,2,07,70,08,261,,77,11,035,,84,56,291,*5B
$GPGSV,3,1,11,02,22,142,47,05,45,067,39,15,67,239,40,29,32,232,52*75
$GPGSV,3,2,11,13,74,050,,20,62,327,,35,,,39,40,,,35*72
$GPGSV,3,3,11,41,,,45,42,,,37,50,,,36*7F
$BDGSV,2,1,05,04,,,41,13,,,39,01,38,144,,02,35,227,*6F
$BDGSV,2,2,05,03,45,189,*5F
$GNGGA,062345.00,3637.275243,N,11700.552617,E,1,04,0.9,82.6,M,-4.0,M,,*5D
$GNVTG,0.0,T,5.4,M,0.0,N,0.0,K,A*3C
$GNRMC,062345.00,A,3637.275243,N,11700.552617,E,0.0,0.0,281017,5.4,W,A*32
$GPGSA,A,2,02,05,15,29,,,,,,,,,1.3,0.9,0.9*39
$GLGSA,A,2,68,79,83,85,,,,,,,,,1.3,0.9,0.9*2B
$BDGSA,A,2,,,,,,,,,,,,,1.3,0.9,0.9*20
$GLGSV,2,1,07,70,08,261,17,79,11,127,35,83,41,192,46,85,12,331,32*69
$GLGSV,2,2,07,68,42,030,31,77,11,035,,84,56,291,*58
$GPGSV,3,1,11,02,22,142,47,05,45,067,39,15,67,239,39,29,32,232,52*7B
$GPGSV,3,2,11,13,74,050,,20,62,327,,35,,,39,40,,,35*72
$GPGSV,3,3,11,41,,,45,42,,,36,50,,,37*7F
$BDGSV,2,1,05,04,,,41,13,,,38,01,38,144,,02,35,227,*6E
$BDGSV,2,2,05,03,45,189,*5F
$GNGGA,062346.00,3637.275237,N,11700.552621,E,1,04,0.9,82.6,M,-4.0,M,,*58
$GNVTG,0.0,T,5.4,M,0.0,N,0.0,K,A*3C
$GNRMC,062346.00,A,3637.275237,N,11700.552621,E,0.0,0.0,281017,5.4,W,A*37
$GPGSA,A,2,02,05,15,29,,,,,,,,,1.3,0.9,0.9*39
$GLGSA,A,2,68,79,83,85,,,,,,,,,1.3,0.9,0.9*2B
$BDGSA,A,2,,,,,,,,,,,,,1.3,0.9,0.9*20
$GLGSV,2,1,07,70,08,261,17,79,11,127,36,83,41,192,46,85,12,331,32*6A
$GLGSV,2,2,07,68,42,030,31,77,11,035,,84,56,291,*58
$GPGSV,3,1,11,02,22,142,47,05,45,067,38,15,67,239,39,20,62,327,26*70
$GPGSV,3,2,11,29,32,232,52,13,74,050,,35,,,39,40,,,35*7C
$GPGSV,3,3,11,41,,,45,42,,,36,50,,,36*7E
$BDGSV,2,1,05,04,,,41,13,,,38,01,38,144,,02,35,227,*6E
$BDGSV,2,2,05,03,45,189,*5F
$GNGGA,062347.00,3637.275226,N,11700.552625,E,1,04,0.9,82.6,M,-4.0,M,,*5D
$GNVTG,0.0,T,5.4,M,0.0,N,0.0,K,A*3C
$GNRMC,062347.00,A,3637.275226,N,11700.552625,E,0.0,0.0,281017,5.4,W,A*32
$GPGSA,A,2,02,05,15,29,,,,,,,,,1.3,0.9,0.9*39
$GLGSA,A,2,68,79,83,85,,,,,,,,,1.3,0.9,0.9*2B
$BDGSA,A,2,,,,,,,,,,,,,1.3,0.9,0.9*20
$GLGSV,2,1,07,70,08,261,17,79,11,127,35,83,41,192,46,85,12,331,30*6B
$GLGSV,2,2,07,68,42,030,31,77,11,035,,84,56,291,*58
$GPGSV,3,1,11,02,22,142,46,05,45,067,38,15,67,239,38,29,32,232,51*79
$GPGSV,3,2,11,13,74,050,,20,62,327,,35,,,39,40,,,35*72
$GPGSV,3,3,11,41,,,45,42,,,36,50,,,36*7E
$BDGSV,2,1,05,04,,,41,13,,,38,01,38,144,,02,35,227,*6E
$BDGSV,2,2,05,03,45,189,*5F
$GNGGA,062348.00,3637.275218,N,11700.552628,E,1,04,0.9,82.6,M,-4.0,M,,*52
$GNVTG,0.0,T,5.4,M,0.0,N,0.0,K,A*3C
$GNRMC,062348.00,A,3637.275218,N,11700.552628,E,0.0,0.0,281017,5.4,W,A*3D
$GPGSA,A,2,02,05,15,29,,,,,,,,,1.3,0.9,0.9*39
$GLGSA,A,2,68,79,83,85,,,,,,,,,1.3,0.9,0.9*2B
$BDGSA,A,2,,,,,,,,,,,,,1.3,0.9,0.9*20
$GLGSV,2,1,07,70,08,261,16,79,11,127,35,83,41,192,45,85,12,331,29*61
$GLGSV,2,2,07,68,42,030,29,77,11,035,,84,56,291,*51
$GPGSV,3,1,11,02,22,142,46,05,45,067,38,15,67,239,39,29,32,232,51*78
$GPGSV,3,2,11,13,74,050,,20,62,327,,35,,,39,40,,,35*72
$GPGSV,3,3,11,41,,,44,42,,,36,50,,,36*7F
$BDGSV,2,1,05,04,,,40,13,,,38,01,38,144,,02,35,227,*6F
$BDGSV,2,2,05,03,45,189,*5F
$GNGGA,062349.00,3637.275223,N,11700.552629,E,1,04,0.9,82.6,M,-4.0,M,,*5A
$GNVTG,0.0,T,5.4,M,0.0,N,0.0,K,A*3C
$GNRMC,062349.00,A,3637.275223,N,11700.552629,E,0.0,0.0,281017,5.4,W,A*35
$GPGSA,A,2,02,05,15,29,,,,,,,,,1.3,0.9,0.9*39
$GLGSA,A,2,68,79,83,85,,,,,,,,,1.3,0.9,0.9*2B
$BDGSA,A,2,,,,,,,,,,,,,1.3,0.9,0.9*20
$GLGSV,2,1,07,70,08,261,16,79,11,127,35,83,41,192,45,85,12,331,29*61
$GLGSV,2,2,07,68,42,030,29,77,11,035,,84,56,291,*51
$GPGSV,3,1,11,02,22,142,46,05,45,067,38,15,67,239,39,29,32,232,51*78
$GPGSV,3,2,11,13,74,050,,20,62,327,,35,,,39,40,,,35*72
$GPGSV,3,3,11,41,,,44,42,,,36,50,,,36*7F
$BDGSV,2,1,05,04,,,40,13,,,38,01,38,144,,02,35,227,*6F
$BDGSV,2,2,05,03,45,189,*5F
$GNGGA,062350.00,3637.275223,N,11700.552629,E,1,04,0.9,82.6,M,-4.0,M,,*52
$GNVTG,0.0,T,5.4,M,0.0,N,0.0,K,A*3C
$GNRMC,062350.00,A,3637.275223,N,11700.552629,E,0.0,0.0,281017,5.4,W,A*3D
$GPGSA,A,2,02,05,15,29,,,,,,,,,1.3,0.9,0.9*39
$GLGSA,A,2,68,79,83,85,,,,,,,,,1.3,0.9,0.9*2B
$BDGSA,A,2,,,,,,,,,,,,,1.3,0.9,0.9*20
$GLGSV,2,1,07,70,08,261,15,79,11,127,35,83,41,192,45,85,12,331,29*62
$GLGSV,2,2,07,68,42,030,29,77,11,035,,84,56,291,*51
$GPGSV,3,1,11,02,22,142,46,05,45,067,38,15,67,239,39,29,32,232,51*78
$GPGSV,3,2,11,13,74,050,,20,62,327,,35,,,39,40,,,35*72
$GPGSV,3,3,11,41,,,44,42,,,36,50,,,36*7F
$BDGSV,2,1,05,04,,,40,13,,,38,01,38,144,,02,35,227,*6F
$BDGSV,2,2,05,03,45,189,*5F
$GNGGA,062351.00,3637.275223,N,11700.552629,E,1,04,0.9,82.6,M,-4.0,M,,*53
$GNVTG,0.0,T,5.4,M,0.0,N,0.0,K,A*3C
$GNRMC,062351.00,A,3637.275223,N,11700.552629,E,0.0,0.0,281017,5.4,W,A*3C
$GPGSA,A,2,02,05,15,29,,,,,,,,,1.3,0.9,0.9*39
$GLGSA,A,2,68,79,83,85,,,,,,,,,1.3,0.9,0.9*2B
$BDGSA,A,2,,,,,,,,,,,,,1.3,0.9,0.9*20
$GLGSV,2,1,07,70,08,261,15,79,11,127,35,83,41,192,45,85,12,331,29*62
$GLGSV,2,2,07,68,42,030,29,77,11,035,,84,56,291,*51
$GPGSV,3,1,11,02,22,142,46,05,45,067,38,15,67,239,39,29,32,232,51*78
$GPGSV,3,2,11,13,74,050,,20,62,327,,35,,,39,40,,,35*72
$GPGSV,3,3,11,41,,,44,42,,,36,50,,,36*7F
$BDGSV,2,1,05,04,,,40,13,,,38,01,38,144,,02,35,227,*6F
$BDGSV,2,2,05,03,45,189,*5F
$GNGGA,062352.00,3637.275223,N,11700.552629,E,1,04,0.9,82.6,M,-4.0,M,,*50
$GNVTG,0.0,T,5.4,M,0.0,N,0.0,K,A*3C
$GNRMC,062352.00,A,3637.275223,N,11700.552629,E,0.0,0.0,281017,5.4,W,A*3F
$GPGSA,A,2,02,05,15,29,,,,,,,,,1.3,0.9,0.9*39
$GLGSA,A,2,68,79,83,85,,,,,,,,,1.3,0.9,0.9*2B
$BDGSA,A,2,,,,,,,,,,,,,1.3,0.9,0.9*20
$GLGSV,2,1,07,70,08,261,15,79,11,127,35,83,41,192,45,85,12,331,29*62
$GLGSV,2,2,07,68,42,030,29,77,11,035,,84,56,291,*51
$GPGSV,3,1,11,02,22,142,46,05,45,067,38,15,67,239,39,29,32,232,51*78
$GPGSV,3,2,11,13,74,050,,20,62,327,,35,,,39,40,,,35*72
$GPGSV,3,3,11,41,,,44,42,,,36,50,,,36*7F
$BDGSV,2,1,05,04,,,40,13,,,38,01,38,144,,02,35,227,*6F
$BDGSV,2,2,05,03,45,189,*5F
$GNGGA,062353.00,3637.275223,N,11700.552629,E,1,04,0.9,82.6,M,-4.0,M,,*51
$GNVTG,0.0,T,5.4,M,0.0,N,0.0,K,A*3C
$GNRMC,062353.00,A,3637.275223,N,11700.552629,E,0.0,0.0,281017,5.4,W,A*3E
$GPGSA,A,2,02,05,15,29,,,,,,,,,1.3,0.9,0.9*39
$GLGSA,A,2,68,79,83,85,,,,,,,,,1.3,0.9,0.9*2B
$BDGSA,A,2,,,,,,,,,,,,,1.3,0.9,0.9*20
$GLGSV,2,1,07,70,08,261,15,79,11,127,35,83,41,192,45,85,12,331,29*62
$GLGSV,2,2,07,68,42,030,29,77,11,035,,84,56,291,*51
$GPGSV,3,1,11,02,22,142,46,05,45,067,38,15,67,239,39,29,32,232,51*78
$GPGSV,3,2,11,13,74,050,,20,62,327,,35,,,39,40,,,35*72
$GPGSV,3,3,11,41,,,44,42,,,36,50,,,36*7F
$BDGSV,2,1,05,04,,,40,13,,,38,01,38,144,,02,35,227,*6F
$BDGSV,2,2,05,03,45,189,*5F
$GNGGA,062354.00,3637.275223,N,11700.552629,E,1,04,0.9,82.6,M,-4.0,M,,*56
$GNVTG,0.0,T,5.4,M,0.0,N,0.0,K,A*3C
$GNRMC,062354.00,A,3637.275223,N,11700.552629,E,0.0,0.0,281017,5.4,W,A*39
$GPGSA,A,2,02,05,15,29,,,,,,,,,1.3,0.9,0.9*39
$GLGSA,A,2,68,79,83,85,,,,,,,,,1.3,0.9,0.9*2B
$BDGSA,A,2,,,,,,,,,,,,,1.3,0.9,0.9*20
$GLGSV,2,1,07,70,08,261,15,79,11,127,35,83,41,192,45,85,12,331,29*62
$GLGSV,2,2,07,68,42,030,29,77,11,035,,84,56,291,*51
$GPGSV,3,1,11,02,22,142,46,05,45,067,38,15,67,239,39,29,32,232,51*78
$GPGSV,3,2,11,13,74,050,,20,62,327,,35,,,39,40,,,35*72
$GPGSV,3,3,11,41,,,44,42,,,36,50,,,36*7F
$BDGSV,2,1,05,04,,,40,13,,,38,01,38,144,,02,35,227,*6F
$BDGSV,2,2,05,03,45,189,*5F
$GNGGA,062355.00,3637.276676,N,11700.553781,E,1,04,0.9,82.0,M,-4.0,M,,*54
$GNVTG,,T,5.4,M,0.0,N,0.0,K,A*12
$GNRMC,062355.00,A,3637.276676,N,11700.553781,E,0.0,,281017,5.4,W,A*13
$GPGSA,A,2,02,05,15,29,,,,,,,,,1.3,0.9,0.9*39
$GLGSA,A,2,68,79,83,85,,,,,,,,,1.3,0.9,0.9*2B
$BDGSA,A,2,,,,,,,,,,,,,1.3,0.9,0.9*20
$GLGSV,2,1,07,70,08,261,15,79,11,127,35,83,41,192,45,85,12,331,29*62
$GLGSV,2,2,07,68,42,030,29,77,11,035,,84,56,291,*51
$GPGSV,3,1,11,02,22,142,46,05,45,067,38,15,67,239,39,29,32,232,51*78
$GPGSV,3,2,11,13,74,050,,20,62,327,,35,,,39,40,,,35*72
$GPGSV,3,3,11,41,,,44,42,,,36,50,,,36*7F
$BDGSV,2,1,05,04,,,40,13,,,38,01,38,144,,02,35,227,*6F
$BDGSV,2,2,05,03,45,189,*5F
$GNVTG,,T,,M,,N,,K,N*32
$GPGSA,A,1,,,,,,,,,,,,,,,*1E
$GLGSA,A,1,,,,,,,,,,,,,,,*02
$BDGSA,A,1,,,,,,,,,,,,,,,*0F
$GNGGA,,,,,,0,,,,,,,,*78
$GNRMC,,V,,,,,,,,,,N*4D
$GLGSV,2,1,07,70,08,261,15,79,11,127,35,83,41,192,45,85,12,331,29*62
$GLGSV,2,2,07,68,42,030,29,77,11,035,,84,56,291,*51
$GPGSV,3,1,11,02,22,142,46,05,45,067,38,15,67,239,39,29,32,232,51*78
$GPGSV,3,2,11,13,74,050,,20,62,327,,35,,,39,40,,,35*72
$GPGSV,3,3,11,41,,,44,42,,,36,50,,,36*7F
$BDGSV,2,1,05,04,,,40,13,,,38,01,38,144,,02,35,227,*6F
$BDGSV,2,2,05,03,45,189,*5F
$GNVTG,,T,,M,,N,,K,N*32
$GPGSA,A,1,,,,,,,,,,,,,,,*1E
$GLGSA,A,1,,,,,,,,,,,,,,,*02
$BDGSA,A,1,,,,,,,,,,,,,,,*0F
$GNGGA,,,,,,0,,,,,,,,*78
$GNRMC,,V,,,,,,,,,,N*4D
$GLGSV,2,1,07,70,08,261,15,79,11,127,35,83,41,192,45,85,12,331,29*62
$GLGSV,2,2,07,68,42,030,29,77,11,035,,84,56,291,*51
$GPGSV,3,1,11,02,22,142,46,05,45,067,38,15,67,239,39,29,32,232,51*78
$GPGSV,3,2,11,13,74,050,,20,62,327,,35,,,39,40,,,35*72
$GPGSV,3,3,11,41,,,44,42,,,36,50,,,36*7F
$BDGSV,2,1,05,04,,,40,13,,,38,01,38,144,,02,35,227,*6F
$BDGSV,2,2,05,03,45,189,*5F
$GNVTG,,T,,M,,N,,K,N*32
$GPGSA,A,1,,,,,,,,,,,,,,,*1E
$GLGSA,A,1,,,,,,,,,,,,,,,*02
$BDGSA,A,1,,,,,,,,,,,,,,,*0F
$GNGGA,,,,,,0,,,,,,,,*78
$GNRMC,,V,,,,,,,,,,N*4D
$GLGSV,2,1,07,70,08,261,15,79,11,127,35,83,41,192,45,85,12,331,29*62
$GLGSV,2,2,07,68,42,030,29,77,11,035,,84,56,291,*51
$GPGSV,3,1,11,02,22,142,46,05,45,067,38,15,67,239,39,29,32,232,51*78
$GPGSV,3,2,11,13,74,050,,20,62,327,,35,,,39,40,,,35*72
$GPGSV,3,3,11,41,,,44,42,,,36,50,,,36*7F
$BDGSV,2,1,05,04,,,40,13,,,38,01,38,144,,02,35,227,*6F
$BDGSV,2,2,05,03,45,189,*5F
$GNVTG,,T,,M,,N,,K,N*32
$GPGSA,A,1,,,,,,,,,,,,,,,*1E
$GLGSA,A,1,,,,,,,,,,,,,,,*02
$BDGSA,A,1,,,,,,,,,,,,,,,*0F
$GNGGA,,,,,,0,,,,,,,,*78
$GNRMC,,V,,,,,,,,,,N*4D
$GLGSV,2,1,07,70,08,261,15,79,11,127,35,83,41,192,45,85,12,331,29*62
$GLGSV,2,2,07,68,42,030,29,77,11,035,,84,56,291,*51
$GPGSV,3,1,11,02,22,142,46,05,45,067,38,15,67,239,39,29,32,232,51*78
$GPGSV,3,2,11,13,74,050,,20,62,327,,35,,,39,40,,,35*72
$GPGSV,3,3,11,41,,,44,42,,,36,50,,,36*7F
$BDGSV,2,1,05,04,,,40,13,,,38,01,38,144,,02,35,227,*6F
$BDGSV,2,2,05,03,45,189,*5F
$GNVTG,,T,,M,,N,,K,N*32
$GPGSA,A,1,,,,,,,,,,,,,,,*1E
$GLGSA,A,1,,,,,,,,,,,,,,,*02
$BDGSA,A,1,,,,,,,,,,,,,,,*0F
$GNGGA,,,,,,0,,,,,,,,*78
$GNRMC,,V,,,,,,,,,,N*4D
$GLGSV,2,1,06,70,08,261,15,79,11,127,35,83,41,192,45,85,12,331,29*63
$GLGSV,2,2,06,68,42,030,29,84,56,291,*66
$GPGSV,3,1,10,05,45,067,38,15,67,239,39,29,32,232,51,02,22,142,*7B
$GPGSV,3,2,10,20,62,327,,35,,,39,40,,,35,41,,,44*42
$GPGSV,3,3,10,42,,,36,50,,,36*7B
$BDGSV,2,1,05,04,,,40,13,,,38,01,38,144,,02,35,227,*6F
$BDGSV,2,2,05,03,45,189,*5F
$GNVTG,,T,,M,,N,,K,N*32
$GPGSA,A,1,,,,,,,,,,,,,,,*1E
$GLGSA,A,1,,,,,,,,,,,,,,,*02
$BDGSA,A,1,,,,,,,,,,,,,,,*0F
$GNGGA,,,,,,0,,,,,,,,*78
$GNRMC,,V,,,,,,,,,,N*4D
$GLGSV,2,1,07,70,08,261,15,79,11,127,35,83,41,192,45,85,12,331,29*62
$GLGSV,2,2,07,68,42,030,29,77,11,035,,84,56,291,*51
$GPGSV,3,1,11,05,45,067,38,15,67,239,39,29,32,232,51,02,22,142,*7A
$GPGSV,3,2,11,13,74,050,,20,62,327,,35,,,39,40,,,35*72
$GPGSV,3,3,11,41,,,44,42,,,36,50,,,36*7F
$BDGSV,2,1,05,04,,,40,13,,,38,01,38,144,,02,35,227,*6F
$BDGSV,2,2,05,03,45,189,*5F
$GNVTG,,T,,M,,N,,K,N*32
$GPGSA,A,1,,,,,,,,,,,,,,,*1E
$GLGSA,A,1,,,,,,,,,,,,,,,*02
$BDGSA,A,1,,,,,,,,,,,,,,,*0F
$GNGGA,,,,,,0,,,,,,,,*78
$GNRMC,,V,,,,,,,,,,N*4D
$GLGSV,2,1,07,70,08,261,15,79,11,127,35,83,41,192,45,85,12,331,29*62
$GLGSV,2,2,07,68,42,030,29,77,11,035,,84,56,291,*51
$GPGSV,3,1,11,05,45,067,38,15,67,239,39,29,32,232,51,02,22,142,*7A
$GPGSV,3,2,11,13,74,050,,20,62,327,,35,,,39,40,,,35*72
$GPGSV,3,3,11,41,,,44,42,,,36,50,,,36*7F
$BDGSV,2,1,05,04,,,40,13,,,38,01,38,144,,02,35,227,*6F
$BDGSV,2,2,05,03,45,189,*5F
$GNVTG,,T,,M,,N,,K,N*32
$GPGSA,A,1,,,,,,,,,,,,,,,*1E
$GLGSA,A,1,,,,,,,,,,,,,,,*02
$BDGSA,A,1,,,,,,,,,,,,,,,*0F
$GNGGA,,,,,,0,,,,,,,,*78
$GNRMC,,V,,,,,,,,,,N*4D
$GLGSV,2,1,07,70,08,261,15,79,11,127,35,83,41,192,45,85,12,331,29*62
$GLGSV,2,2,07,68,42,030,29,77,11,035,,84,56,291,*51
$GPGSV,3,1,11,05,45,067,38,15,67,239,39,29,32,232,51,02,22,142,*7A
$GPGSV,3,2,11,13,74,050,,20,62,327,,35,,,39,40,,,35*72
$GPGSV,3,3,11,41,,,44,42,,,36,50,,,36*7F
$BDGSV,2,1,05,04,,,40,13,,,38,01,38,144,,02,35,227,*6F
$BDGSV,2,2,05,03,45,189,*5F
$GNVTG,,T,,M,,N,,K,N*32
$GPGSA,A,1,,,,,,,,,,,,,,,*1E
$GLGSA,A,1,,,,,,,,,,,,,,,*02
$BDGSA,A,1,,,,,,,,,,,,,,,*0F
$GNGGA,,,,,,0,,,,,,,,*78
$GNRMC,,V,,,,,,,,,,N*4D
$GLGSV,2,1,07,70,08,261,15,79,11,127,35,83,41,192,45,85,12,331,29*62
$GLGSV,2,2,07,68,42,030,29,77,11,035,,84,56,291,*51
$GPGSV,3,1,11,05,45,067,38,15,67,239,39,29,32,232,51,02,22,142,*7A
$GPGSV,3,2,11,13,74,050,,20,62,327,,35,,,39,40,,,35*72
$GPGSV,3,3,11,41,,,44,42,,,36,50,,,36*7F
$BDGSV,2,1,05,04,,,40,13,,,38,01,38,144,,02,35,227,*6F
$BDGSV,2,2,05,03,45,189,*5F
$GNVTG,,T,,M,,N,,K,N*32
$GPGSA,A,1,,,,,,,,,,,,,,,*1E
$GLGSA,A,1,,,,,,,,,,,,,,,*02
$BDGSA,A,1,,,,,,,,,,,,,,,*0F
$GNGGA,,,,,,0,,,,,,,,*78
$GNRMC,,V,,,,,,,,,,N*4D
$GLGSV,2,1,07,70,08,261,15,79,11,127,35,83,41,192,45,85,12,331,29*62
$GLGSV,2,2,07,68,42,030,29,77,11,035,,84,56,291,*51
$GPGSV,3,1,11,05,45,067,38,15,67,239,39,29,32,232,51,02,22,142,*7A
$GPGSV,3,2,11,13,74,050,,20,62,327,,35,,,39,40,,,35*72
$GPGSV,3,3,11,41,,,44,42,,,36,50,,,36*7F
$BDGSV,2,1,05,04,,,40,13,,,38,01,38,144,,02,35,227,*6F
$BDGSV,2,2,05,03,45,189,*5F
$GNVTG,,T,,M,,N,,K,N*32
$GPGSA,A,1,,,,,,,,,,,,,,,*1E
$GLGSA,A,1,,,,,,,,,,,,,,,*02
$BDGSA,A,1,,,,,,,,,,,,,,,*0F
$GNGGA,,,,,,0,,,,,,,,*78
$GNRMC,,V,,,,,,,,,,N*4D
$GLGSV,2,1,07,70,08,261,15,79,11,127,35,83,41,192,45,85,12,331,29*62
$GLGSV,2,2,07,68,42,030,29,77,11,035,,84,56,291,*51
$GPGSV,3,1,11,05,45,067,38,15,67,239,39,29,32,232,51,02,22,142,*7A
$GPGSV,3,2,11,13,74,050,,20,62,327,,35,,,39,40,,,35*72
$GPGSV,3,3,11,41,,,44,42,,,36,50,,,36*7F
$BDGSV,2,1,05,04,,,40,13,,,38,01,38,144,,02,35,227,*6F
$BDGSV,2,2,05,03,45,189,*5F
$GNVTG,,T,,M,,N,,K,N*32
$GPGSA,A,1,,,,,,,,,,,,,,,*1E
$GLGSA,A,1,,,,,,,,,,,,,,,*02
$BDGSA,A,1,,,,,,,,,,,,,,,*0F
$GNGGA,,,,,,0,,,,,,,,*78
$GNRMC,,V,,,,,,,,,,N*4D
$GLGSV,2,1,07,70,08,261,15,79,11,127,35,83,41,192,45,85,12,331,29*62
$GLGSV,2,2,07,68,42,030,29,77,11,035,,84,56,291,*51
$GPGSV,3,1,11,05,45,067,38,15,67,239,39,29,32,232,51,02,22,142,*7A
$GPGSV,3,2,11,13,74,050,,20,62,327,,35,,,39,40,,,35*72
$GPGSV,3,3,11,41,,,44,42,,,36,50,,,36*7F
$BDGSV,2,1,05,04,,,40,13,,,38,01,38,144,,02,35,227,*6F
$BDGSV,2,2,05,03,45,189,*5F
$GNVTG,,T,,M,,N,,K,N*32
$GPGSA,A,1,,,,,,,,,,,,,,,*1E
$GLGSA,A,1,,,,,,,,,,,,,,,*02
$BDGSA,A,1,,,,,,,,,,,,,,,*0F
$GNGGA,,,,,,0,,,,,,,,*78
$GNRMC,,V,,,,,,,,,,N*4D
$GLGSV,2,1,07,70,08,261,15,79,11,127,35,83,41,192,45,85,12,331,29*62
$GLGSV,2,2,07,68,42,030,29,77,11,035,,84,56,291,*51
$GPGSV,3,1,11,05,45,067,38,15,67,239,39,29,32,232,51,02,22,142,*7A
$GPGSV,3,2,11,13,74,050,,20,62,327,,35,,,39,40,,,35*72
$GPGSV,3,3,11,41,,,44,42,,,36,50,,,36*7F
$BDGSV,2,1,05,04,,,40,13,,,38,01,38,144,,02,35,227,*6F
$BDGSV,2,2,05,03,45,189,*5F
$GNVTG,,T,,M,,N,,K,N*32
$GPGSA,A,1,,,,,,,,,,,,,,,*1E
$GLGSA,A,1,,,,,,,,,,,,,,,*02
$BDGSA,A,1,,,,,,,,,,,,,,,*0F
$GNGGA,,,,,,0,,,,,,,,*78
$GNRMC,,V,,,,,,,,,,N*4D
$GLGSV,2,1,07,70,08,261,15,79,11,127,35,83,41,192,45,85,12,331,29*62
$GLGSV,2,2,07,68,42,030,29,77,11,035,,84,56,291,*51
$GPGSV,3,1,11,05,45,067,38,15,67,239,39,29,32,232,51,02,22,142,*7A
$GPGSV,3,2,11,13,74,050,,20,62,327,,35,,,39,40,,,35*72
$GPGSV,3,3,11,41,,,44,42,,,36,50,,,36*7F
$BDGSV,2,1,05,04,,,40,13,,,38,01,38,144,,02,35,227,*6F
$BDGSV,2,2,05,03,45,189,*5F
$GNVTG,,T,,M,,N,,K,N*32
$GPGSA,A,1,,,,,,,,,,,,,,,*1E
$GLGSA,A,1,,,,,,,,,,,,,,,*02
$BDGSA,A,1,,,,,,,,,,,,,,,*0F
$GNGGA,,,,,,0,,,,,,,,*78
$GNRMC,,V,,,,,,,,,,N*4D
$GLGSV,2,1,07,70,08,261,15,79,11,127,35,83,41,192,45,85,12,331,29*62
$GLGSV,2,2,07,68,42,030,29,77,11,035,,84,56,291,*51
$GPGSV,3,1,11,05,45,067,38,15,67,239,39,29,32,232,51,02,22,142,*7A
$GPGSV,3,2,11,13,74,050,,20,62,327,,35,,,39,40,,,35*72
$GPGSV,3,3,11,41,,,44,42,,,36,50,,,36*7F
$BDGSV,2,1,05,04,,,40,13,,,38,01,38,144,,02,35,227,*6F
$BDGSV,2,2,05,03,45,189,*5F
$GNVTG,,T,,M,,N,,K,N*32
$GPGSA,A,1,,,,,,,,,,,,,,,*1E
$GLGSA,A,1,,,,,,,,,,,,,,,*02
$BDGSA,A,1,,,,,,,,,,,,,,,*0F
$GNGGA,,,,,,0,,,,,,,,*78
$GNRMC,,V,,,,,,,,,,N*4D
$GLGSV,2,1,06,79,11,127,35,83,41,192,45,85,12,331,29,68,42,030,29*6D
$GLGSV,2,2,06,77,11,035,,84,56,291,*60
$GPGSV,3,1,11,05,45,067,38,15,67,239,39,29,32,232,51,02,22,142,*7A
$GPGSV,3,2,11,13,74,050,,20,62,327,,35,,,39,40,,,35*72
$GPGSV,3,3,11,41,,,44,42,,,36,50,,,36*7F
$BDGSV,2,1,05,04,,,40,13,,,38,01,38,144,,02,35,227,*6F
$BDGSV,2,2,05,03,45,189,*5F
$GNVTG,,T,,M,,N,,K,N*32
$GPGSA,A,1,,,,,,,,,,,,,,,*1E
$GLGSA,A,1,,,,,,,,,,,,,,,*02
$BDGSA,A,1,,,,,,,,,,,,,,,*0F
$GNGGA,,,,,,0,,,,,,,,*78
$GNRMC,,V,,,,,,,,,,N*4D
$GLGSV,2,1,07,79,11,127,35,83,41,192,45,85,12,331,29,68,42,030,29*6C
$GLGSV,2,2,07,70,08,261,,77,11,035,,84,56,291,*5B
$GPGSV,3,1,11,05,45,067,38,29,32,232,51,02,22,142,,13,74,050,*79
$GPGSV,3,2,11,15,67,239,,20,62,327,,35,,,39,40,,,35*7B
$GPGSV,3,3,11,41,,,44,42,,,36,50,,,36*7F
$BDGSV,2,1,05,04,,,40,13,,,38,01,38,144,,02,35,227,*6F
$BDGSV,2,2,05,03,45,189,*5F
$GNVTG,,T,,M,,N,,K,N*32
$GPGSA,A,1,,,,,,,,,,,,,,,*1E
$GLGSA,A,1,,,,,,,,,,,,,,,*02
$BDGSA,A,1,,,,,,,,,,,,,,,*0F
$GNGGA,,,,,,0,,,,,,,,*78
$GNRMC,,V,,,,,,,,,,N*4D
$GLGSV,1,1,03,70,08,261,,77,11,035,,84,56,291,*5F
$GPGSV,3,1,09,02,22,142,,13,74,050,,15,67,239,,20,62,327,*7E
$GPGSV,3,2,09,35,,,39,40,,,35,41,,,44,42,,,36*79
$GPGSV,3,3,09,50,,,36*70
$BDGSV,2,1,05,04,,,40,13,,,38,01,38,144,,02,35,227,*6F
$BDGSV,2,2,05,03,45,189,*5F
$GNVTG,,T,,M,,N,,K,N*32
$GPGSA,A,1,,,,,,,,,,,,,,,*1E
$GLGSA,A,1,,,,,,,,,,,,,,,*02
$BDGSA,A,1,,,,,,,,,,,,,,,*0F
$GNGGA,,,,,,0,,,,,,,,*78
$GNRMC,,V,,,,,,,,,,N*4D
$GLGSV,2,1,07,70,08,261,,77,11,035,,79,11,127,,84,56,291,*62
$GLGSV,2,2,07,83,41,192,,85,12,331,,68,42,030,*52
$GPGSV,3,1,10,02,22,142,,13,74,050,,15,67,239,,20,62,327,*76
$GPGSV,3,2,10,29,32,232,,35,,,39,40,,,35,41,,,44*4B
$GPGSV,3,3,10,42,,,36,50,,,36*7B
$BDGSV,2,1,05,04,,,40,13,,,38,01,38,144,,02,35,227,*6F
$BDGSV,2,2,05,03,45,189,*5F
$GNVTG,,T,,M,,N,,K,N*32
$GPGSA,A,1,,,,,,,,,,,,,,,*1E
$GLGSA,A,1,,,,,,,,,,,,,,,*02
$BDGSA,A,1,,,,,,,,,,,,,,,*0F
$GNGGA,,,,,,0,,,,,,,,*78
$GNRMC,,V,,,,,,,,,,N*4D
$GLGSV,2,1,07,79,11,127,37,83,41,192,47,85,12,331,35,68,42,030,30*69
$GLGSV,2,2,07,70,08,261,,77,11,035,,84,56,291,*5B
$GPGSV,3,1,11,02,22,142,48,05,45,067,39,15,67,239,31,29,32,232,53*7D
$GPGSV,3,2,11,13,74,050,,20,62,327,,35,,,39,40,,,35*72
$GPGSV,3,3,11,41,,,44,42,,,36,50,,,36*7F
$BDGSV,2,1,05,01,38,144,36,02,35,227,41,03,45,189,36,04,,,41*50
$BDGSV,2,2,05,13,,,40*6B
$GNVTG,,T,,M,,N,,K,N*32
$GPGSA,A,1,,,,,,,,,,,,,,,*1E
$GLGSA,A,1,,,,,,,,,,,,,,,*02
$BDGSA,A,1,,,,,,,,,,,,,,,*0F
$GNGGA,,,,,,0,,,,,,,,*78
$GNRMC,,V,,,,,,,,,,N*4D
$GLGSV,2,1,07,79,11,126,35,83,40,192,46,85,13,331,33,68,42,030,30*6D
$GLGSV,2,2,07,70,08,261,,77,11,035,,84,56,289,*52
$GPGSV,3,1,11,02,21,142,46,05,45,067,38,13,74,050,24,15,67,240,28*7A
$GPGSV,3,2,11,20,62,329,30,29,32,232,50,35,,,39,40,,,35*77
$GPGSV,3,3,11,41,,,44,42,,,36,50,,,35*7C
$BDGSV,2,1,05,01,38,144,36,02,35,227,39,03,45,189,36,04,,,41*5F
$BDGSV,2,2,05,13,,,38*64
$GNGGA,062417.00,3637.275216,N,11700.552639,E,1,04,0.9,82.6,M,-4.0,M,,*51
$GNVTG,0.0,T,5.4,M,0.0,N,0.0,K,A*3C
$GNRMC,062417.00,A,3637.275216,N,11700.552639,E,0.0,0.0,281017,5.4,W,A*3E
$GPGSA,A,2,02,05,15,29,,,,,,,,,1.3,0.9,0.9*39
$GLGSA,A,2,68,79,83,85,,,,,,,,,1.3,0.9,0.9*2B
$BDGSA,A,2,,,,,,,,,,,,,1.3,0.9,0.9*20
$GLGSV,2,1,07,79,11,126,35,83,40,192,45,85,13,331,33,68,42,030,27*68
$GLGSV,2,2,07,70,08,261,,77,11,035,,84,56,289,*52
$GPGSV,3,1,11,02,21,142,46,05,45,067,37,15,67,240,26,20,62,329,30*74
$GPGSV,3,2,11,29,32,232,49,13,74,050,,35,,,39,40,,,35*76
$GPGSV,3,3,11,41,,,43,42,,,36,50,,,35*7B
$BDGSV,2,1,05,01,38,144,35,02,35,227,38,03,45,189,35,04,,,40*5F
$BDGSV,2,2,05,13,,,37*6B
$GNGGA,062418.00,3637.275202,N,11700.552647,E,1,04,0.9,82.7,M,-4.0,M,,*53
$GNVTG,0.0,T,5.4,M,0.0,N,0.0,K,A*3C
$GNRMC,062418.00,A,3637.275202,N,11700.552647,E,0.0,0.0,281017,5.4,W,A*3D
$GPGSA,A,2,02,05,15,29,,,,,,,,,1.3,0.9,0.9*39
$GLGSA,A,2,68,79,83,85,,,,,,,,,1.3,0.9,0.9*2B
$BDGSA,A,2,,,,,,,,,,,,,1.3,0.9,0.9*20
$GLGSV,2,1,07,79,11,126,32,83,40,192,43,85,13,331,31,68,42,030,24*68
$GLGSV,2,2,07,70,08,261,,77,11,035,,84,56,289,*52
$GPGSV,3,1,11,02,21,142,43,05,45,067,34,15,67,240,22,20,62,329,26*71
$GPGSV,3,2,11,29,32,232,47,13,74,050,,35,,,39,40,,,35*78
$GPGSV,3,3,11,41,,,41,42,,,33,50,,,35*7C
$BDGSV,2,1,05,01,38,144,35,02,35,227,35,03,45,189,34,04,,,38*5C
$BDGSV,2,2,05,13,,,35*69
$GNGGA,062419.00,3637.275875,N,11700.551895,E,1,04,0.9,82.4,M,-4.0,M,,*59
$GNVTG,326.5,T,331.8,M,2.7,N,5.0,K,A*36
$GNRMC,062419.00,A,3637.275875,N,11700.551895,E,2.7,326.5,281017,5.4,W,A*33
$GPGSA,A,2,02,05,15,29,,,,,,,,,1.3,0.9,0.9*39
$GLGSA,A,2,68,79,83,85,,,,,,,,,1.3,0.9,0.9*2B
$BDGSA,A,2,,,,,,,,,,,,,1.3,0.9,0.9*20
$GLGSV,2,1,07,79,11,126,32,83,40,192,43,85,13,331,31,68,42,030,24*68
$GLGSV,2,2,07,70,08,261,,77,11,035,,84,56,289,*52
$GPGSV,3,1,11,02,21,142,43,05,45,067,34,15,67,240,22,20,62,329,26*71
$GPGSV,3,2,11,29,32,232,47,13,74,050,,35,,,39,40,,,35*78
$GPGSV,3,3,11,41,,,41,42,,,33,50,,,35*7C
$BDGSV,2,1,05,01,38,144,35,02,35,227,35,03,45,189,34,04,,,38*5C
$BDGSV,2,2,05,13,,,35*69
$GNGGA,062420.00,3637.276509,N,11700.551375,E,1,04,0.9,82.5,M,-4.0,M,,*52
$GNVTG,326.5,T,331.9,M,2.7,N,5.0,K,A*37
$GNRMC,062420.00,A,3637.276509,N,11700.551375,E,2.7,326.5,281017,5.4,W,A*39
$GPGSA,A,2,02,05,15,29,,,,,,,,,1.3,0.9,0.9*39
$GLGSA,A,2,68,79,83,85,,,,,,,,,1.3,0.9,0.9*2B
$BDGSA,A,2,,,,,,,,,,,,,1.3,0.9,0.9*20
$GLGSV,2,1,07,79,11,126,32,83,40,192,43,85,13,331,31,68,42,030,24*68
$GLGSV,2,2,07,70,08,261,,77,11,035,,84,56,289,*52
$GPGSV,3,1,11,02,21,142,43,05,45,067,34,15,67,240,22,20,62,329,26*71
$GPGSV,3,2,11,29,32,232,47,13,74,050,,35,,,39,40,,,35*78
$GPGSV,3,3,11,41,,,41,42,,,33,50,,,35*7C
$BDGSV,2,1,05,01,38,144,28,02,35,227,35,03,45,189,34,04,,,38*50
$BDGSV,2,2,05,13,,,35*69
$GNGGA,062421.00,3637.277141,N,11700.550857,E,1,04,0.9,82.5,M,-4.0,M,,*50
$GNVTG,326.5,T,331.9,M,2.7,N,5.0,K,A*37
$GNRMC,062421.00,A,3637.277141,N,11700.550857,E,2.7,326.5,281017,5.4,W,A*3B
$GPGSA,A,2,02,05,15,29,,,,,,,,,1.3,0.9,0.9*39
$GLGSA,A,2,68,79,83,85,,,,,,,,,1.3,0.9,0.9*2B
$BDGSA,A,2,,,,,,,,,,,,,1.3,0.9,0.9*20
$GLGSV,2,1,07,79,11,126,32,83,40,192,43,85,13,331,31,68,42,030,24*68
$GLGSV,2,2,07,70,08,261,,77,11,035,,84,56,289,*52
$GPGSV,3,1,11,02,21,142,43,05,45,067,34,15,67,240,22,20,62,329,26*71
$GPGSV,3,2,11,29,32,232,47,13,74,050,,35,,,39,40,,,35*78
$GPGSV,3,3,11,41,,,41,42,,,33,50,,,35*7C
$BDGSV,2,1,05,01,38,144,28,02,35,227,35,03,45,189,34,04,,,38*50
$BDGSV,2,2,05,13,,,35*69
$GNVTG,,T,,M,,N,,K,N*32
$GPGSA,A,1,,,,,,,,,,,,,,,*1E
$GLGSA,A,1,,,,,,,,,,,,,,,*02
$BDGSA,A,1,,,,,,,,,,,,,,,*0F
$GNGGA,,,,,,0,,,,,,,,*78
$GNRMC,,V,,,,,,,,,,N*4D
$GLGSV,2,1,07,79,11,126,32,83,40,192,43,85,13,331,31,68,42,030,24*68
$GLGSV,2,2,07,70,08,261,,77,11,035,,84,56,289,*52
$GPGSV,3,1,11,02,21,142,43,05,45,067,34,15,67,240,22,20,62,329,26*71
$GPGSV,3,2,11,29,32,232,47,13,74,050,,35,,,39,40,,,35*78
$GPGSV,3,3,11,41,,,41,42,,,33,50,,,35*7C
$BDGSV,2,1,05,01,38,144,28,02,35,227,35,03,45,189,34,04,,,38*50
$BDGSV,2,2,05,13,,,35*69
$GNVTG,,T,,M,,N,,K,N*32
$GPGSA,A,1,,,,,,,,,,,,,,,*1E
$GLGSA,A,1,,,,,,,,,,,,,,,*02
$BDGSA,A,1,,,,,,,,,,,,,,,*0F
$GNGGA,,,,,,0,,,,,,,,*78
$GNRMC,,V,,,,,,,,,,N*4D
$GLGSV,2,1,07,79,11,126,32,83,40,192,43,85,13,331,31,68,42,030,24*68
$GLGSV,2,2,07,70,08,261,,77,11,035,,84,56,289,*52
$GPGSV,3,1,11,02,21,142,43,05,45,067,34,15,67,240,22,20,62,329,26*71
$GPGSV,3,2,11,29,32,232,47,13,74,050,,35,,,39,40,,,35*78
$GPGSV,3,3,11,41,,,41,42,,,33,50,,,35*7C
$BDGSV,2,1,05,01,38,144,28,02,35,227,35,03,45,189,34,04,,,38*50
$BDGSV,2,2,05,13,,,35*69
$GNVTG,,T,,M,,N,,K,N*32
$GPGSA,A,1,,,,,,,,,,,,,,,*1E
$GLGSA,A,1,,,,,,,,,,,,,,,*02
$BDGSA,A,1,,,,,,,,,,,,,,,*0F
$GNGGA,,,,,,0,,,,,,,,*78
$GNRMC,,V,,,,,,,,,,N*4D
$GLGSV,2,1,07,79,11,126,32,83,40,192,43,85,13,331,31,68,42,030,24*68
$GLGSV,2,2,07,70,08,261,,77,11,035,,84,56,289,*52
$GPGSV,3,1,11,02,21,142,43,05,45,067,34,15,67,240,22,20,62,329,26*71
$GPGSV,3,2,11,29,32,232,47,13,74,050,,35,,,39,40,,,35*78
$GPGSV,3,3,11,41,,,41,42,,,33,50,,,35*7C
$BDGSV,2,1,05,01,38,144,28,02,35,227,35,03,45,189,34,04,,,38*50
$BDGSV,2,2,05,13,,,35*69
$GNVTG,,T,,M,,N,,K,N*32
$GPGSA,A,1,,,,,,,,,,,,,,,*1E
$GLGSA,A,1,,,,,,,,,,,,,,,*02
$BDGSA,A,1,,,,,,,,,,,,,,,*0F
$GNGGA,,,,,,0,,,,,,,,*78
$GNRMC,,V,,,,,,,,,,N*4D
$GLGSV,2,1,07,79,11,126,32,83,40,192,43,85,13,331,31,68,42,030,24*68
$GLGSV,2,2,07,70,08,261,,77,11,035,,84,56,289,*52
$GPGSV,3,1,11,02,21,142,43,05,45,067,34,15,67,240,22,20,62,329,26*71
$GPGSV,3,2,11,29,32,232,47,13,74,050,,35,,,39,40,,,35*78
$GPGSV,3,3,11,41,,,41,42,,,33,50,,,35*7C
$BDGSV,2,1,05,01,38,144,28,02,35,227,35,03,45,189,34,04,,,38*50
$BDGSV,2,2,05,13,,,35*69
$GNVTG,,T,,M,,N,,K,N*32
$GPGSA,A,1,,,,,,,,,,,,,,,*1E
$GLGSA,A,1,,,,,,,,,,,,,,,*02
$BDGSA,A,1,,,,,,,,,,,,,,,*0F
$GNGGA,,,,,,0,,,,,,,,*78
$GNRMC,,V,,,,,,,,,,N*4D
$GLGSV,2,1,07,79,11,126,32,83,40,192,43,85,13,331,31,68,42,030,24*68
$GLGSV,2,2,07,70,08,261,,77,11,035,,84,56,289,*52
$GPGSV,3,1,11,02,21,142,43,05,45,067,34,15,67,240,22,20,62,329,26*71
$GPGSV,3,2,11,29,32,232,47,13,74,050,,35,,,39,40,,,35*78
$GPGSV,3,3,11,41,,,41,42,,,33,50,,,35*7C
$BDGSV,2,1,05,01,38,144,28,02,35,227,35,03,45,189,34,04,,,38*50
$BDGSV,2,2,05,13,,,35*69
$GNVTG,,T,,M,,N,,K,N*32
$GPGSA,A,1,,,,,,,,,,,,,,,*1E
$GLGSA,A,1,,,,,,,,,,,,,,,*02
$BDGSA,A,1,,,,,,,,,,,,,,,*0F
$GNGGA,,,,,,0,,,,,,,,*78
$GNRMC,,V,,,,,,,,,,N*4D
$GLGSV,2,1,07,79,11,126,32,83,40,192,43,85,13,331,31,68,42,030,24*68
$GLGSV,2,2,07,70,08,261,,77,11,035,,84,56,289,*52
$GPGSV,3,1,11,02,21,142,43,05,45,067,34,15,67,240,22,20,62,329,26*71
$GPGSV,3,2,11,29,32,232,47,13,74,050,,35,,,39,40,,,35*78
$GPGSV,3,3,11,41,,,41,42,,,33,50,,,35*7C
$BDGSV,2,1,05,01,38,144,28,02,35,227,35,03,45,189,34,04,,,38*50
$BDGSV,2,2,05,13,,,35*69
$GNVTG,,T,,M,,N,,K,N*32
$GPGSA,A,1,,,,,,,,,,,,,,,*1E
$GLGSA,A,1,,,,,,,,,,,,,,,*02
$BDGSA,A,1,,,,,,,,,,,,,,,*0F
$GNGGA,,,,,,0,,,,,,,,*78
$GNRMC,,V,,,,,,,,,,N*4D
$GLGSV,2,1,07,79,11,126,32,83,40,192,43,85,13,331,31,68,42,030,24*68
$GLGSV,2,2,07,70,08,261,,77,11,035,,84,56,289,*52
$GPGSV,3,1,11,02,21,142,43,05,45,067,34,15,67,240,22,20,62,329,26*71
$GPGSV,3,2,11,29,32,232,47,13,74,050,,35,,,39,40,,,35*78
$GPGSV,3,3,11,41,,,41,42,,,33,50,,,35*7C
$BDGSV,2,1,05,01,38,144,28,02,35,227,35,03,45,189,34,04,,,38*50
$BDGSV,2,2,05,13,,,35*69
$GNVTG,,T,,M,,N,,K,N*32
$GPGSA,A,1,,,,,,,,,,,,,,,*1E
$GLGSA,A,1,,,,,,,,,,,,,,,*02
$BDGSA,A,1,,,,,,,,,,,,,,,*0F
$GNGGA,,,,,,0,,,,,,,,*78
$GNRMC,,V,,,,,,,,,,N*4D
$GLGSV,2,1,07,79,11,126,32,83,40,192,43,85,13,331,31,68,42,030,24*68
$GLGSV,2,2,07,70,08,261,,77,11,035,,84,56,289,*52
$GPGSV,3,1,11,02,21,142,43,05,45,067,34,15,67,240,22,20,62,329,26*71
$GPGSV,3,2,11,29,32,232,47,13,74,050,,35,,,39,40,,,35*78
$GPGSV,3,3,11,41,,,41,42,,,33,50,,,35*7C
$BDGSV,2,1,05,01,38,144,28,02,35,227,35,03,45,189,34,04,,,38*50
$BDGSV,2,2,05,13,,,35*69
$GNVTG,,T,,M,,N,,K,N*32
$GPGSA,A,1,,,,,,,,,,,,,,,*1E
$GLGSA,A,1,,,,,,,,,,,,,,,*02
$BDGSA,A,1,,,,,,,,,,,,,,,*0F
$GNGGA,,,,,,0,,,,,,,,*78
$GNRMC,,V,,,,,,,,,,N*4D
$GLGSV,2,1,07,79,11,126,32,83,40,192,43,85,13,331,31,68,42,030,24*68
$GLGSV,2,2,07,70,08,261,,77,11,035,,84,56,289,*52
$GPGSV,3,1,11,02,21,142,43,05,45,067,34,15,67,240,22,20,62,329,26*71
$GPGSV,3,2,11,29,32,232,47,13,74,050,,35,,,39,40,,,35*78
$GPGSV,3,3,11,41,,,41,42,,,33,50,,,35*7C
$BDGSV,2,1,05,01,38,144,28,02,35,227,35,03,45,189,34,04,,,38*50
$BDGSV,2,2,05,13,,,35*69
$GNVTG,,T,,M,,N,,K,N*32
$GPGSA,A,1,,,,,,,,,,,,,,,*1E
$GLGSA,A,1,,,,,,,,,,,,,,,*02
$BDGSA,A,1,,,,,,,,,,,,,,,*0F
$GNGGA,,,,,,0,,,,,,,,*78
$GNRMC,,V,,,,,,,,,,N*4D
$GLGSV,2,1,07,79,11,126,32,83,40,192,43,85,13,331,31,68,42,030,24*68
$GLGSV,2,2,07,70,08,261,,77,11,035,,84,56,289,*52
$GPGSV,3,1,11,02,21,142,43,05,45,067,34,15,67,240,22,20,62,329,26*71
$GPGSV,3,2,11,29,32,232,47,13,74,050,,35,,,39,40,,,35*78
$GPGSV,3,3,11,41,,,41,42,,,33,50,,,35*7C
$BDGSV,2,1,05,01,38,144,28,02,35,227,35,03,45,189,34,04,,,38*50
$BDGSV,2,2,05,13,,,35*69
$GNVTG,,T,,M,,N,,K,N*32
$GPGSA,A,1,,,,,,,,,,,,,,,*1E
$GLGSA,A,1,,,,,,,,,,,,,,,*02
$BDGSA,A,1,,,,,,,,,,,,,,,*0F
$GNGGA,,,,,,0,,,,,,,,*78
$GNRMC,,V,,,,,,,,,,N*4D
$GLGSV,2,1,07,79,11,126,32,83,40,192,43,85,13,331,31,68,42,030,24*68
$GLGSV,2,2,07,70,08,261,,77,11,035,,84,56,289,*52
$GPGSV,3,1,11,02,21,142,43,05,45,067,34,15,67,240,22,20,62,329,26*71
$GPGSV,3,2,11,29,32,232,47,13,74,050,,35,,,39,40,,,35*78
$GPGSV,3,3,11,41,,,41,42,,,33,50,,,35*7C
$BDGSV,2,1,05,01,38,144,28,02,35,227,35,03,45,189,34,04,,,38*50
$BDGSV,2,2,05,13,,,35*69
$GNVTG,,T,,M,,N,,K,N*32
$GPGSA,A,1,,,,,,,,,,,,,,,*1E
$GLGSA,A,1,,,,,,,,,,,,,,,*02
$BDGSA,A,1,,,,,,,,,,,,,,,*0F
$GNGGA,,,,,,0,,,,,,,,*78
$GNRMC,,V,,,,,,,,,,N*4D
$GLGSV,2,1,07,79,11,126,32,83,40,192,43,85,13,331,31,68,42,030,24*68
$GLGSV,2,2,07,70,08,261,,77,11,035,,84,56,289,*52
$GPGSV,3,1,11,02,21,142,43,05,45,067,34,15,67,240,22,20,62,329,26*71
$GPGSV,3,2,11,29,32,232,47,13,74,050,,35,,,39,40,,,35*78
$GPGSV,3,3,11,41,,,41,42,,,33,50,,,35*7C
$BDGSV,2,1,05,01,38,144,28,02,35,227,35,03,45,189,34,04,,,38*50
$BDGSV,2,2,05,13,,,35*69
$GNVTG,,T,,M,,N,,K,N*32
$GPGSA,A,1,,,,,,,,,,,,,,,*1E
$GLGSA,A,1,,,,,,,,,,,,,,,*02
$BDGSA,A,1,,,,,,,,,,,,,,,*0F
$GNGGA,,,,,,0,,,,,,,,*78
$GNRMC,,V,,,,,,,,,,N*4D
$GLGSV,2,1,07,79,11,126,32,83,40,192,43,85,13,331,31,68,42,030,24*68
$GLGSV,2,2,07,70,08,261,,77,11,035,,84,56,289,*52
$GPGSV,3,1,11,02,21,142,43,05,45,067,34,15,67,240,22,20,62,329,26*71
$GPGSV,3,2,11,29,32,232,47,13,74,050,,35,,,39,40,,,35*78
$GPGSV,3,3,11,41,,,41,42,,,33,50,,,35*7C
$BDGSV,2,1,05,01,38,144,28,02,35,227,35,03,45,189,34,04,,,38*50
$BDGSV,2,2,05,13,,,35*69
$GNVTG,,T,,M,,N,,K,N*32
$GPGSA,A,1,,,,,,,,,,,,,,,*1E
$GLGSA,A,1,,,,,,,,,,,,,,,*02
$BDGSA,A,1,,,,,,,,,,,,,,,*0F
$GNGGA,,,,,,0,,,,,,,,*78
$GNRMC,,V,,,,,,,,,,N*4D
$GLGSV,2,1,07,79,11,126,32,83,40,192,43,85,13,331,31,68,42,030,24*68
$GLGSV,2,2,07,70,08,261,,77,11,035,,84,56,289,*52
$GPGSV,3,1,11,02,21,142,43,05,45,067,34,15,67,240,22,20,62,329,26*71
$GPGSV,3,2,11,29,32,232,47,13,74,050,,35,,,39,40,,,35*78
$GPGSV,3,3,11,41,,,41,42,,,33,50,,,35*7C
$BDGSV,2,1,05,01,38,144,28,02,35,227,35,03,45,189,34,04,,,38*50
$BDGSV,2,2,05,13,,,35*69
$GNVTG,,T,,M,,N,,K,N*32
$GPGSA,A,1,,,,,,,,,,,,,,,*1E
$GLGSA,A,1,,,,,,,,,,,,,,,*02
$BDGSA,A,1,,,,,,,,,,,,,,,*0F
$GNGGA,,,,,,0,,,,,,,,*78
$GNRMC,,V,,,,,,,,,,N*4D
$GLGSV,2,1,07,79,11,126,32,83,40,192,43,85,13,331,31,68,42,030,24*68
$GLGSV,2,2,07,70,08,261,,77,11,035,,84,56,289,*52
$GPGSV,3,1,11,02,21,142,43,05,45,067,34,15,67,240,22,20,62,329,26*71
$GPGSV,3,2,11,29,32,232,47,13,74,050,,35,,,39,40,,,35*78
$GPGSV,3,3,11,41,,,41,42,,,33,50,,,35*7C
$BDGSV,2,1,05,01,38,144,28,02,35,227,35,03,45,189,34,04,,,38*50
$BDGSV,2,2,05,13,,,35*69
$GNVTG,,T,,M,,N,,K,N*32
$GPGSA,A,1,,,,,,,,,,,,,,,*1E
$GLGSA,A,1,,,,,,,,,,,,,,,*02
$BDGSA,A,1,,,,,,,,,,,,,,,*0F
$GNGGA,,,,,,0,,,,,,,,*78
$GNRMC,,V,,,,,,,,,,N*4D
$GLGSV,2,1,07,79,11,126,32,83,40,192,43,85,13,331,31,68,42,030,24*68
$GLGSV,2,2,07,70,08,261,,77,11,035,,84,56,289,*52
$GPGSV,3,1,11,02,21,142,43,05,45,067,34,15,67,240,22,20,62,329,26*71
$GPGSV,3,2,11,29,32,232,47,13,74,050,,35,,,39,40,,,35*78
$GPGSV,3,3,11,41,,,41,42,,,33,50,,,35*7C
$BDGSV,2,1,05,01,38,144,28,02,35,227,35,03,45,189,34,04,,,38*50
$BDGSV,2,2,05,13,,,35*69
$GNVTG,,T,,M,,N,,K,N*32
$GPGSA,A,1,,,,,,,,,,,,,,,*1E
$GLGSA,A,1,,,,,,,,,,,,,,,*02
$BDGSA,A,1,,,,,,,,,,,,,,,*0F
$GNGGA,,,,,,0,,,,,,,,*78
$GNRMC,,V,,,,,,,,,,N*4D
$GLGSV,2,1,07,79,11,126,32,83,40,192,43,85,13,331,31,68,42,030,24*68
$GLGSV,2,2,07,70,08,261,,77,11,035,,84,56,289,*52
$GPGSV,3,1,11,02,21,142,43,05,45,067,34,15,67,240,22,20,62,329,26*71
$GPGSV,3,2,11,29,32,232,47,13,74,050,,35,,,39,40,,,35*78
$GPGSV,3,3,11,41,,,41,42,,,33,50,,,35*7C
$BDGSV,2,1,05,01,38,144,28,02,35,227,35,03,45,189,34,04,,,38*50
$BDGSV,2,2,05,13,,,35*69
$GNVTG,,T,,M,,N,,K,N*32
$GPGSA,A,1,,,,,,,,,,,,,,,*1E
$GLGSA,A,1,,,,,,,,,,,,,,,*02
$BDGSA,A,1,,,,,,,,,,,,,,,*0F
$GNGGA,,,,,,0,,,,,,,,*78
$GNRMC,,V,,,,,,,,,,N*4D
$GLGSV,2,1,07,79,11,126,32,83,40,192,43,85,13,331,31,68,42,030,24*68
$GLGSV,2,2,07,70,08,261,,77,11,035,,84,56,289,*52
$GPGSV,3,1,11,02,21,142,43,05,45,067,34,15,67,240,22,20,62,329,26*71
$GPGSV,3,2,11,29,32,232,47,13,74,050,,35,,,39,40,,,35*78
$GPGSV,3,3,11,41,,,41,42,,,33,50,,,35*7C
$BDGSV,2,1,05,01,38,144,28,02,35,227,35,03,45,189,34,04,,,38*50
$BDGSV,2,2,05,13,,,35*69
$GNVTG,,T,,M,,N,,K,N*32
$GPGSA,A,1,,,,,,,,,,,,,,,*1E
$GLGSA,A,1,,,,,,,,,,,,,,,*02
$BDGSA,A,1,,,,,,,,,,,,,,,*0F
$GNGGA,,,,,,0,,,,,,,,*78
$GNRMC,,V,,,,,,,,,,N*4D
$GLGSV,2,1,07,79,11,126,32,83,40,192,43,85,13,331,31,68,42,030,24*68
$GLGSV,2,2,07,70,08,261,,77,11,035,,84,56,289,*52
$GPGSV,3,1,11,02,21,142,43,05,45,067,34,15,67,240,22,20,62,329,26*71
$GPGSV,3,2,11,29,32,232,47,13,74,050,,35,,,39,40,,,35*78
$GPGSV,3,3,11,41,,,41,42,,,33,50,,,35*7C
$BDGSV,2,1,05,01,38,144,28,02,35,227,35,03,45,189,34,04,,,38*50
$BDGSV,2,2,05,13,,,35*69
$GNVTG,,T,,M,,N,,K,N*32
$GPGSA,A,1,,,,,,,,,,,,,,,*1E
$GLGSA,A,1,,,,,,,,,,,,,,,*02
$BDGSA,A,1,,,,,,,,,,,,,,,*0F
$GNGGA,,,,,,0,,,,,,,,*78
$GNRMC,,V,,,,,,,,,,N*4D
$GLGSV,2,1,07,79,11,126,32,83,40,192,43,85,13,331,31,68,42,030,24*68
$GLGSV,2,2,07,70,08,261,,77,11,035,,84,56,289,*52
$GPGSV,3,1,11,02,21,142,43,05,45,067,34,15,67,240,22,20,62,329,26*71
$GPGSV,3,2,11,29,32,232,47,13,74,050,,35,,,39,40,,,35*78
$GPGSV,3,3,11,41,,,41,42,,,33,50,,,35*7C
$BDGSV,2,1,05,01,38,144,28,02,35,227,35,03,45,189,34,04,,,38*50
$BDGSV,2,2,05,13,,,35*69
$GNVTG,,T,,M,,N,,K,N*32
$GPGSA,A,1,,,,,,,,,,,,,,,*1E
$GLGSA,A,1,,,,,,,,,,,,,,,*02
$BDGSA,A,1,,,,,,,,,,,,,,,*0F
$GNGGA,,,,,,0,,,,,,,,*78
$GNRMC,,V,,,,,,,,,,N*4D
$GLGSV,2,1,07,79,11,126,32,83,40,192,43,85,13,331,31,68,42,030,24*68
$GLGSV,2,2,07,70,08,261,,77,11,035,,84,56,289,*52
$GPGSV,3,1,10,02,21,142,43,05,45,067,34,15,67,240,22,29,32,232,47*70
$GPGSV,3,2,10,13,74,050,,35,,,39,40,,,35,41,,,41*43
$GPGSV,3,3,10,42,,,33,50,,,35*7D
$BDGSV,2,1,05,01,38,144,28,02,35,227,35,03,45,189,34,04,,,38*50
$BDGSV,2,2,05,13,,,35*69
$GNVTG,,T,,M,,N,,K,N*32
$GPGSA,A,1,,,,,,,,,,,,,,,*1E
$GLGSA,A,1,,,,,,,,,,,,,,,*02
$BDGSA,A,1,,,,,,,,,,,,,,,*0F
$GNGGA,,,,,,0,,,,,,,,*78
$GNRMC,,V,,,,,,,,,,N*4D
$GLGSV,1,1,03,70,08,261,,77,11,035,,84,56,289,*56
$GPGSV,2,1,06,13,74,050,,35,,,39,40,,,35,41,,,41*46
$GPGSV,2,2,06,42,,,33,50,,,35*7A
$BDGSV,2,1,05,01,38,144,28,02,35,227,35,03,45,189,34,04,,,38*50
$BDGSV,2,2,05,13,,,35*69
$GNVTG,,T,,M,,N,,K,N*32
$GPGSA,A,1,,,,,,,,,,,,,,,*1E
$GLGSA,A,1,,,,,,,,,,,,,,,*02
$BDGSA,A,1,,,,,,,,,,,,,,,*0F
$GNGGA,,,,,,0,,,,,,,,*78
$GNRMC,,V,,,,,,,,,,N*4D
$GLGSV,2,1,07,70,08,261,,77,11,035,,79,11,126,,84,56,289,*6A
$GLGSV,2,2,07,83,40,192,,85,13,331,,68,42,030,*52
$GPGSV,2,1,08,13,74,050,,15,67,240,,29,32,232,,35,,,39*40
$GPGSV,2,2,08,40,,,35,41,,,41,42,,,33,50,,,35*76
$BDGSV,2,1,05,01,38,144,28,02,35,227,35,03,45,189,34,04,,,38*50
$BDGSV,2,2,05,13,,,35*69
$GNVTG,,T,,M,,N,,K,N*32
$GPGSA,A,1,,,,,,,,,,,,,,,*1E
$GLGSA,A,1,,,,,,,,,,,,,,,*02
$BDGSA,A,1,,,,,,,,,,,,,,,*0F
$GNGGA,,,,,,0,,,,,,,,*78
$GNRMC,,V,,,,,,,,,,N*4D
$GLGSV,2,1,07,70,08,261,,77,11,035,,79,11,126,,84,56,289,*6A
$GLGSV,2,2,07,83,40,192,,85,13,331,,68,42,030,*52
$GPGSV,3,1,09,02,21,142,,13,74,050,,15,67,240,,29,32,232,*7A
$GPGSV,3,2,09,35,,,39,40,,,35,41,,,41,42,,,33*79
$GPGSV,3,3,09,50,,,35*73
$BDGSV,2,1,05,01,38,144,28,02,35,227,35,03,45,189,34,04,,,38*50
$BDGSV,2,2,05,13,,,35*69
$GNVTG,,T,,M,,N,,K,N*32
$GPGSA,A,1,,,,,,,,,,,,,,,*1E
$GLGSA,A,1,,,,,,,,,,,,,,,*02
$BDGSA,A,1,,,,,,,,,,,,,,,*0F
$GNGGA,,,,,,0,,,,,,,,*78
$GNRMC,,V,,,,,,,,,,N*4D
$GLGSV,2,1,07,70,08,261,,77,11,035,,79,11,126,,84,56,289,*6A
$GLGSV,2,2,07,83,40,192,,85,13,331,,68,42,030,*52
$GPGSV,3,1,09,02,21,142,,13,74,050,,15,67,240,,29,32,232,*7A
$GPGSV,3,2,09,35,,,39,40,,,35,41,,,41,42,,,33*79
$GPGSV,3,3,09,50,,,35*73
$BDGSV,2,1,05,01,38,144,28,02,35,227,35,03,45,189,34,04,,,38*50
$BDGSV,2,2,05,13,,,35*69
$GNVTG,,T,,M,,N,,K,N*32
$GPGSA,A,1,,,,,,,,,,,,,,,*1E
$GLGSA,A,1,,,,,,,,,,,,,,,*02
$BDGSA,A,1,,,,,,,,,,,,,,,*0F
$GNGGA,,,,,,0,,,,,,,,*78
$GNRMC,,V,,,,,,,,,,N*4D
$GLGSV,2,1,07,70,08,261,,77,11,035,,79,11,126,,84,56,289,*6A
$GLGSV,2,2,07,83,40,192,,85,13,331,,68,42,030,*52
$GPGSV,3,1,09,02,21,142,,13,74,050,,15,67,240,,29,32,232,*7A
$GPGSV,3,2,09,35,,,39,40,,,35,41,,,41,42,,,33*79
$GPGSV,3,3,09,50,,,35*73
$BDGSV,2,1,05,01,38,144,28,02,35,227,35,03,45,189,26,04,,,38*53
$BDGSV,2,2,05,13,,,35*69
$GNVTG,,T,,M,,N,,K,N*32
$GPGSA,A,1,,,,,,,,,,,,,,,*1E
$GLGSA,A,1,,,,,,,,,,,,,,,*02
$BDGSA,A,1,,,,,,,,,,,,,,,*0F
$GNGGA,,,,,,0,,,,,,,,*78
$GNRMC,,V,,,,,,,,,,N*4D
$GLGSV,2,1,07,70,08,261,,77,11,035,,79,11,126,,84,56,289,*6A
$GLGSV,2,2,07,83,40,192,,85,13,331,,68,42,030,*52
$GPGSV,2,1,07,02,21,142,,13,74,050,,15,67,240,,29,32,232,*75
$GPGSV,2,2,07,41,,,41,42,,,33,50,,,35*7B
$BDGSV,2,1,05,01,38,144,28,02,35,227,35,03,45,189,26,04,,,38*53
$BDGSV,2,2,05,13,,,35*69
$GNVTG,,T,,M,,N,,K,N*32
$GPGSA,A,1,,,,,,,,,,,,,,,*1E
$GLGSA,A,1,,,,,,,,,,,,,,,*02
$BDGSA,A,1,,,,,,,,,,,,,,,*0F
$GNGGA,,,,,,0,,,,,,,,*78
$GNRMC,,V,,,,,,,,,,N*4D
$GLGSV,2,1,07,70,08,261,,77,11,035,,79,11,126,,84,56,289,*6A
$GLGSV,2,2,07,83,40,192,,85,13,331,,68,42,030,*52
$GPGSV,2,1,07,02,21,142,,13,74,050,,15,67,240,,29,32,232,*75
$GPGSV,2,2,07,41,,,41,42,,,33,50,,,35*7B
$BDGSV,2,1,05,01,38,144,28,02,35,227,35,03,45,189,26,04,,,38*53
$BDGSV,2,2,05,13,,,35*69
$GNVTG,,T,,M,,N,,K,N*32
$GPGSA,A,1,,,,,,,,,,,,,,,*1E
$GLGSA,A,1,,,,,,,,,,,,,,,*02
$BDGSA,A,1,,,,,,,,,,,,,,,*0F
$GNGGA,,,,,,0,,,,,,,,*78
$GNRMC,,V,,,,,,,,,,N*4D
$GLGSV,2,1,07,70,08,261,,77,11,035,,79,11,126,,84,56,289,*6A
$GLGSV,2,2,07,83,40,192,,85,13,331,,68,42,030,*52
$GPGSV,2,1,07,02,21,142,,13,74,050,,15,67,240,,29,32,232,*75
$GPGSV,2,2,07,41,,,41,42,,,33,50,,,35*7B
$BDGSV,2,1,05,01,38,144,28,02,35,227,35,03,45,189,26,04,,,38*53
$BDGSV,2,2,05,13,,,35*69
$GNVTG,,T,,M,,N,,K,N*32
$GPGSA,A,1,,,,,,,,,,,,,,,*1E
$GLGSA,A,1,,,,,,,,,,,,,,,*02
$BDGSA,A,1,,,,,,,,,,,,,,,*0F
$GNGGA,,,,,,0,,,,,,,,*78
$GNRMC,,V,,,,,,,,,,N*4D
$GLGSV,2,1,07,70,08,261,,77,11,035,,79,11,126,,84,56,289,*6A
$GLGSV,2,2,07,83,40,192,,85,13,331,,68,42,030,*52
$GPGSV,2,1,07,02,21,142,,13,74,050,,15,67,240,,29,32,232,*75
$GPGSV,2,2,07,41,,,41,42,,,33,50,,,35*7B
$BDGSV,2,1,05,01,38,144,28,02,35,227,35,03,45,189,26,04,,,33*58
$BDGSV,2,2,05,13,,,35*69
$GNVTG,,T,,M,,N,,K,N*32
$GPGSA,A,1,,,,,,,,,,,,,,,*1E
